{"meta":{"year":"2025","generatedAt":"2026-04-13T09:55:25.224Z","counts":{"total":4360,"gt":2346,"pro":2014,"withGeo":4350,"withIps":4345}},"lycees":[{"uai":"0010010F","nom":"Lycee Du Bugey (general Et Techno.)","ville":"Belley","departement":"Ain","codeDept":"01","academie":"Lyon","region":"Auvergne-Rhone-Alpes","secteur":"public","type":"GT","lat":45.76214116742379,"lng":5.689720088856269,"adresse":"113 rue du 5e RTM","codePostal":"01306","presents":188,"tauxReussite":98,"vaReussite":2,"tauxAcces":90,"vaAcces":4,"tauxMention":59,"vaMention":1,"ips":103.8,"ecartTypeIps":33.1},{"uai":"0010878Z","nom":"Lycee Jeanne D'arc (general Et Techno.)","ville":"Cessy","departement":"Ain","codeDept":"01","academie":"Lyon","region":"Auvergne-Rhone-Alpes","secteur":"privé sous contrat","type":"GT","lat":46.32796483918519,"lng":6.062749949818525,"adresse":"95 rue du Lycée","codePostal":"01170","presents":114,"tauxReussite":100,"vaReussite":0,"tauxAcces":87,"vaAcces":-4,"tauxMention":90,"vaMention":2,"ips":131.2,"ecartTypeIps":35.7},{"uai":"0020014E","nom":"Lycee Gay Lussac","ville":"Chauny","departement":"Aisne","codeDept":"02","academie":"Amiens","region":"Hauts-De-France","secteur":"public","type":"GT","lat":49.614417436034934,"lng":3.2209993583191534,"adresse":"23 boulevard Gambetta","codePostal":"02302","presents":382,"tauxReussite":95,"vaReussite":-1,"tauxAcces":83,"vaAcces":-4,"tauxMention":54,"vaMention":-6,"ips":102.8,"ecartTypeIps":32.3},{"uai":"0020059D","nom":"Lycee Gerard De Nerval","ville":"Soissons","departement":"Aisne","codeDept":"02","academie":"Amiens","region":"Hauts-De-France","secteur":"public","type":"GT","lat":49.386364080603975,"lng":3.323269462222443,"adresse":"14 rue Paul Deviolaine","codePostal":"02200","presents":309,"tauxReussite":96,"vaReussite":2,"tauxAcces":89,"vaAcces":3,"tauxMention":57,"vaMention":5,"ips":98.3,"ecartTypeIps":32.3},{"uai":"0021870X","nom":"Lycee Saint Charles","ville":"Chauny","departement":"Aisne","codeDept":"02","academie":"Amiens","region":"Hauts-De-France","secteur":"privé sous contrat","type":"GT","lat":49.61466708577348,"lng":3.2125294394658424,"adresse":"1 rue du Brouage","codePostal":"02300","presents":28,"tauxReussite":100,"vaReussite":null,"tauxAcces":79,"vaAcces":null,"tauxMention":57,"vaMention":null,"ips":113,"ecartTypeIps":31.4},{"uai":"0021874B","nom":"Lycee Saint Remy","ville":"Soissons","departement":"Aisne","codeDept":"02","academie":"Amiens","region":"Hauts-De-France","secteur":"privé sous contrat","type":"GT","lat":49.37620570015788,"lng":3.323051586570636,"adresse":"8 rue Saint-Jean","codePostal":"02200","presents":147,"tauxReussite":99,"vaReussite":1,"tauxAcces":92,"vaAcces":3,"tauxMention":77,"vaMention":7,"ips":120.9,"ecartTypeIps":33.3},{"uai":"0022108F","nom":"Lycee St Vincent De Paul","ville":"Soissons","departement":"Aisne","codeDept":"02","academie":"Amiens","region":"Hauts-De-France","secteur":"privé sous contrat","type":"GT","lat":49.375740068346104,"lng":3.3356006576763777,"adresse":"13 avenue de Reims","codePostal":"02205","presents":33,"tauxReussite":100,"vaReussite":null,"tauxAcces":93,"vaAcces":null,"tauxMention":64,"vaMention":null,"ips":113.5,"ecartTypeIps":31.3},{"uai":"0031044U","nom":"Lycee Genevieve Vincent (general Et Techno.)","ville":"Commentry","departement":"Allier","codeDept":"03","academie":"Clermont-Ferra","region":"Auvergne-Rhone-Alpes","secteur":"public","type":"GT","lat":46.292347295313554,"lng":2.734951132317106,"adresse":"15 boulevard du Général de Gaulle","codePostal":"03600","presents":28,"tauxReussite":93,"vaReussite":null,"tauxAcces":89,"vaAcces":null,"tauxMention":25,"vaMention":null,"ips":87,"ecartTypeIps":24.8},{"uai":"0040010P","nom":"Lycee Felix Esclangon","ville":"Manosque","departement":"Alpes-De-Hte-Provence","codeDept":"04","academie":"Aix-Marseille","region":"Provence-Alpes-Cote D'azur","secteur":"public","type":"GT","lat":43.837804657894324,"lng":5.78133675253913,"adresse":"Boulevard Martin Bret","codePostal":"04103","presents":324,"tauxReussite":96,"vaReussite":1,"tauxAcces":87,"vaAcces":2,"tauxMention":60,"vaMention":5,"ips":112.7,"ecartTypeIps":33.8},{"uai":"0040490L","nom":"Lycee Pierre-Gilles De Gennes","ville":"Digne Les Bains","departement":"Alpes-De-Hte-Provence","codeDept":"04","academie":"Aix-Marseille","region":"Provence-Alpes-Cote D'azur","secteur":"public","type":"GT","lat":44.073765764120616,"lng":6.181939481637232,"adresse":"2 route de Champtercier","codePostal":"04990","presents":163,"tauxReussite":98,"vaReussite":1,"tauxAcces":84,"vaAcces":-2,"tauxMention":72,"vaMention":8,"ips":114.6,"ecartTypeIps":32.8},{"uai":"0060013G","nom":"Lycee Bristol","ville":"Cannes","departement":"Alpes-Maritimes","codeDept":"06","academie":"Nice","region":"Provence-Alpes-Cote D'azur","secteur":"public","type":"GT","lat":43.55556262678885,"lng":7.018946279227393,"adresse":"10 avenue Saint-Nicolas","codePostal":"06414","presents":312,"tauxReussite":86,"vaReussite":-5,"tauxAcces":77,"vaAcces":-6,"tauxMention":33,"vaMention":-5,"ips":96.4,"ecartTypeIps":31.3},{"uai":"0060026W","nom":"Lycee Pierre Et Marie Curie","ville":"Menton","departement":"Alpes-Maritimes","codeDept":"06","academie":"Nice","region":"Provence-Alpes-Cote D'azur","secteur":"public","type":"GT","lat":43.77737603538937,"lng":7.484600420305029,"adresse":"353 avenue du Doyen Jean Lépine","codePostal":"06500","presents":298,"tauxReussite":87,"vaReussite":-5,"tauxAcces":77,"vaAcces":-6,"tauxMention":42,"vaMention":-2,"ips":99.9,"ecartTypeIps":30.6},{"uai":"0060668U","nom":"Lycee Mont Saint Jean","ville":"Antibes","departement":"Alpes-Maritimes","codeDept":"06","academie":"Nice","region":"Provence-Alpes-Cote D'azur","secteur":"privé sous contrat","type":"GT","lat":43.58099906733003,"lng":7.111349758581682,"adresse":"Avenue du Châtaignier","codePostal":"06600","presents":170,"tauxReussite":99,"vaReussite":0,"tauxAcces":93,"vaAcces":2,"tauxMention":91,"vaMention":6,"ips":143.6,"ecartTypeIps":27.7},{"uai":"0060677D","nom":"Lycee Sasserno","ville":"Nice","departement":"Alpes-Maritimes","codeDept":"06","academie":"Nice","region":"Provence-Alpes-Cote D'azur","secteur":"privé sous contrat","type":"GT","lat":43.702141649008404,"lng":7.270819361277454,"adresse":"1 place Sasserno","codePostal":"06000","presents":170,"tauxReussite":100,"vaReussite":1,"tauxAcces":84,"vaAcces":-6,"tauxMention":89,"vaMention":6,"ips":131.7,"ecartTypeIps":29.7},{"uai":"0061884R","nom":"Lycee Henri Matisse","ville":"Vence","departement":"Alpes-Maritimes","codeDept":"06","academie":"Nice","region":"Provence-Alpes-Cote D'azur","secteur":"public","type":"GT","lat":43.72221690311206,"lng":7.105869384547194,"adresse":"101 avenue Foch","codePostal":"06140","presents":343,"tauxReussite":96,"vaReussite":-2,"tauxAcces":86,"vaAcces":-2,"tauxMention":72,"vaMention":2,"ips":127.9,"ecartTypeIps":33.7},{"uai":"0062147B","nom":"Lycee Saint Barthelemy","ville":"Nice","departement":"Alpes-Maritimes","codeDept":"06","academie":"Nice","region":"Provence-Alpes-Cote D'azur","secteur":"privé sous contrat","type":"GT","lat":43.71832594801248,"lng":7.256045607657112,"adresse":"25 avenue de Saint-Barthélémy","codePostal":"06100","presents":88,"tauxReussite":100,"vaReussite":1,"tauxAcces":97,"vaAcces":6,"tauxMention":86,"vaMention":0,"ips":134.4,"ecartTypeIps":30.8},{"uai":"0070029U","nom":"Lycee Gabriel Faure (general Et Techno.)","ville":"Tournon Sur Rhone","departement":"Ardeche","codeDept":"07","academie":"Grenoble","region":"Auvergne-Rhone-Alpes","secteur":"public","type":"GT","lat":45.06672407367518,"lng":4.835779838829748,"adresse":"Place Stéphane Mallarmé","codePostal":"07301","presents":265,"tauxReussite":97,"vaReussite":0,"tauxAcces":83,"vaAcces":-4,"tauxMention":63,"vaMention":1,"ips":103.1,"ecartTypeIps":33},{"uai":"0071351F","nom":"Lycee Xavier Mallet (general Et Techno.)","ville":"Le Teil","departement":"Ardeche","codeDept":"07","academie":"Grenoble","region":"Auvergne-Rhone-Alpes","secteur":"public","type":"GT","lat":44.537699356914565,"lng":4.689608488338841,"adresse":"Rue Frédéric Mistral","codePostal":"07400","presents":121,"tauxReussite":97,"vaReussite":0,"tauxAcces":86,"vaAcces":0,"tauxMention":67,"vaMention":2,"ips":104.8,"ecartTypeIps":34.8},{"uai":"0071397F","nom":"Lycee Le Cheylard (general Et Techno.)","ville":"Le Cheylard","departement":"Ardeche","codeDept":"07","academie":"Grenoble","region":"Auvergne-Rhone-Alpes","secteur":"public","type":"GT","lat":44.90897194714357,"lng":4.42642993040606,"adresse":"4 rue des deux vallées","codePostal":"07160","presents":86,"tauxReussite":93,"vaReussite":-3,"tauxAcces":90,"vaAcces":2,"tauxMention":74,"vaMention":9,"ips":108.1,"ecartTypeIps":31.2},{"uai":"0080008R","nom":"Lycee Francois Bazin (general Et Techno.)","ville":"Charleville Mezieres","departement":"Ardennes","codeDept":"08","academie":"Reims","region":"Gra Est","secteur":"public","type":"GT","lat":49.772077138155,"lng":4.707480572551367,"adresse":"145 avenue Charles de Gaulle","codePostal":"08013","presents":154,"tauxReussite":90,"vaReussite":-5,"tauxAcces":72,"vaAcces":-12,"tauxMention":47,"vaMention":-5,"ips":101.9,"ecartTypeIps":32.7},{"uai":"0080040A","nom":"Lycee Jean Moulin (general Et Techno.)","ville":"Revin","departement":"Ardennes","codeDept":"08","academie":"Reims","region":"Gra Est","secteur":"public","type":"GT","lat":49.92920685786376,"lng":4.654550602525789,"adresse":"996 avenue de la Cité Scolaire","codePostal":"08501","presents":55,"tauxReussite":91,"vaReussite":-4,"tauxAcces":82,"vaAcces":-4,"tauxMention":35,"vaMention":-15,"ips":84.7,"ecartTypeIps":25.8},{"uai":"0110022P","nom":"Lycee Docteur Lacroix","ville":"Narbonne","departement":"Aude","codeDept":"11","academie":"Montpellier","region":"Occitanie","secteur":"public","type":"GT","lat":43.17753505377269,"lng":3.0021901621892777,"adresse":"Rue Gay Lussac","codePostal":"11100","presents":313,"tauxReussite":97,"vaReussite":0,"tauxAcces":90,"vaAcces":3,"tauxMention":70,"vaMention":4,"ips":110.6,"ecartTypeIps":33.2},{"uai":"0120051R","nom":"Lycee Jeanne D'arc","ville":"Millau","departement":"Aveyron","codeDept":"12","academie":"Toulouse","region":"Occitanie","secteur":"privé sous contrat","type":"GT","lat":44.099683711604264,"lng":3.078134373296811,"adresse":"3 place du Mandarous","codePostal":"12104","presents":78,"tauxReussite":99,"vaReussite":1,"tauxAcces":82,"vaAcces":-7,"tauxMention":82,"vaMention":13,"ips":113.7,"ecartTypeIps":29.9},{"uai":"0120061B","nom":"Lycee Saint-Joseph","ville":"Villefranche De Rouergue","departement":"Aveyron","codeDept":"12","academie":"Toulouse","region":"Occitanie","secteur":"privé sous contrat","type":"GT","lat":44.356015311402885,"lng":2.038901840318863,"adresse":"24 avenue Étienne Soulié","codePostal":"12200","presents":44,"tauxReussite":98,"vaReussite":0,"tauxAcces":92,"vaAcces":5,"tauxMention":70,"vaMention":2,"ips":111.8,"ecartTypeIps":30.5},{"uai":"0130002G","nom":"Lycee Paul Cezanne","ville":"Aix En Provence","departement":"Bouches-Du-Rhone","codeDept":"13","academie":"Aix-Marseille","region":"Provence-Alpes-Cote D'azur","secteur":"public","type":"GT","lat":43.534145861532764,"lng":5.459793503829646,"adresse":"Avenue Jean et Marcel Fontenaille","codePostal":"13100","presents":481,"tauxReussite":97,"vaReussite":0,"tauxAcces":88,"vaAcces":1,"tauxMention":69,"vaMention":5,"ips":127.9,"ecartTypeIps":35.7},{"uai":"0131320P","nom":"Lycee Ste Catherine De Sienne","ville":"Aix En Provence","departement":"Bouches-Du-Rhone","codeDept":"13","academie":"Aix-Marseille","region":"Provence-Alpes-Cote D'azur","secteur":"privé sous contrat","type":"GT","lat":43.5304262568344,"lng":5.450930525268522,"adresse":"20 rue Mignet","codePostal":"13100","presents":73,"tauxReussite":100,"vaReussite":1,"tauxAcces":89,"vaAcces":-1,"tauxMention":84,"vaMention":7,"ips":142.4,"ecartTypeIps":28.4},{"uai":"0131331B","nom":"Lycee St Joseph Les Maristes","ville":"Marseille 06","departement":"Bouches-Du-Rhone","codeDept":"13","academie":"Aix-Marseille","region":"Provence-Alpes-Cote D'azur","secteur":"privé sous contrat","type":"GT","lat":43.28631859499157,"lng":5.381980211099259,"adresse":"24 rue Sainte-Victoire","codePostal":"13006","presents":109,"tauxReussite":100,"vaReussite":2,"tauxAcces":92,"vaAcces":3,"tauxMention":78,"vaMention":7,"ips":124.5,"ecartTypeIps":30.7},{"uai":"0131344R","nom":"Cours Bastide","ville":"Marseille 06","departement":"Bouches-Du-Rhone","codeDept":"13","academie":"Aix-Marseille","region":"Provence-Alpes-Cote D'azur","secteur":"privé sous contrat","type":"GT","lat":43.28970596843975,"lng":5.38692000476291,"adresse":"50 rue de Lodi","codePostal":"13006","presents":62,"tauxReussite":100,"vaReussite":1,"tauxAcces":85,"vaAcces":-4,"tauxMention":92,"vaMention":17,"ips":135.4,"ecartTypeIps":26.1},{"uai":"0131347U","nom":"Lycee Ste Trinite","ville":"Marseille 09","departement":"Bouches-Du-Rhone","codeDept":"13","academie":"Aix-Marseille","region":"Provence-Alpes-Cote D'azur","secteur":"privé sous contrat","type":"GT","lat":43.24800394592174,"lng":5.408235345567571,"adresse":"55 avenue de Lattre de Tassigny","codePostal":"13009","presents":70,"tauxReussite":99,"vaReussite":1,"tauxAcces":94,"vaAcces":4,"tauxMention":81,"vaMention":11,"ips":131.4,"ecartTypeIps":31},{"uai":"0131747D","nom":"Lycee Auguste Et Louis Lumiere (general Et Techno.)","ville":"La Ciotat","departement":"Bouches-Du-Rhone","codeDept":"13","academie":"Aix-Marseille","region":"Provence-Alpes-Cote D'azur","secteur":"public","type":"GT","lat":43.18531242697889,"lng":5.603859514275169,"adresse":"Avenue Jules Ferry","codePostal":"13600","presents":297,"tauxReussite":97,"vaReussite":0,"tauxAcces":85,"vaAcces":-1,"tauxMention":61,"vaMention":1,"ips":119.7,"ecartTypeIps":34.1},{"uai":"0132410Z","nom":"Lycee Maurice Genevoix (general Et Techno.)","ville":"Marignane","departement":"Bouches-Du-Rhone","codeDept":"13","academie":"Aix-Marseille","region":"Provence-Alpes-Cote D'azur","secteur":"public","type":"GT","lat":43.41302338253847,"lng":5.2059404106776315,"adresse":"Avenue du Général de Gaulle","codePostal":"13700","presents":322,"tauxReussite":95,"vaReussite":0,"tauxAcces":86,"vaAcces":2,"tauxMention":50,"vaMention":2,"ips":100,"ecartTypeIps":33.2},{"uai":"0133195C","nom":"Lycee Jean Cocteau","ville":"Miramas","departement":"Bouches-Du-Rhone","codeDept":"13","academie":"Aix-Marseille","region":"Provence-Alpes-Cote D'azur","secteur":"public","type":"GT","lat":43.587082623970545,"lng":5.009329552294081,"adresse":"Boulevard Saint-Exupéry","codePostal":"13141","presents":234,"tauxReussite":91,"vaReussite":-3,"tauxAcces":87,"vaAcces":3,"tauxMention":50,"vaMention":-2,"ips":96.6,"ecartTypeIps":33.6},{"uai":"0133286B","nom":"Lycee Belsunce","ville":"Marseille 02","departement":"Bouches-Du-Rhone","codeDept":"13","academie":"Aix-Marseille","region":"Provence-Alpes-Cote D'azur","secteur":"privé sous contrat","type":"GT","lat":43.30443971920629,"lng":5.371740430154394,"adresse":"13 rue Fauchier","codePostal":"13002","presents":20,"tauxReussite":90,"vaReussite":null,"tauxAcces":75,"vaAcces":null,"tauxMention":40,"vaMention":null,"ips":78.2,"ecartTypeIps":22.1},{"uai":"0133314G","nom":"Lycee St Louis - Ste Marie","ville":"Gignac La Nerthe","departement":"Bouches-Du-Rhone","codeDept":"13","academie":"Aix-Marseille","region":"Provence-Alpes-Cote D'azur","secteur":"privé sous contrat","type":"GT","lat":43.39558579767486,"lng":5.234914965412307,"adresse":"Allée Saint-Louis","codePostal":"13180","presents":260,"tauxReussite":100,"vaReussite":1,"tauxAcces":91,"vaAcces":1,"tauxMention":85,"vaMention":5,"ips":126.6,"ecartTypeIps":31.5},{"uai":"0133931C","nom":"Lycee Notre Dame De La Viste","ville":"Marseille 15","departement":"Bouches-Du-Rhone","codeDept":"13","academie":"Aix-Marseille","region":"Provence-Alpes-Cote D'azur","secteur":"privé sous contrat","type":"GT","lat":43.35248128251459,"lng":5.359269984052946,"adresse":"111 chemin Henri Beyle","codePostal":"13314","presents":43,"tauxReussite":100,"vaReussite":5,"tauxAcces":91,"vaAcces":5,"tauxMention":74,"vaMention":20,"ips":105.8,"ecartTypeIps":29.4},{"uai":"0140014P","nom":"Lycee Augustin Fresnel","ville":"Caen","departement":"Calvados","codeDept":"14","academie":"Normaie","region":"Normaie","secteur":"public","type":"GT","lat":49.1638472588597,"lng":-0.35519374304232526,"adresse":"77 rue Eustache Restout","codePostal":"14066","presents":399,"tauxReussite":95,"vaReussite":-2,"tauxAcces":81,"vaAcces":-7,"tauxMention":65,"vaMention":1,"ips":113.8,"ecartTypeIps":32},{"uai":"0140052F","nom":"Lycee Guillaume Le Conquerant (general Et Techno.)","ville":"Falaise","departement":"Calvados","codeDept":"14","academie":"Normaie","region":"Normaie","secteur":"public","type":"GT","lat":48.89416983366997,"lng":-0.1949214535548879,"adresse":"3 rue Louis Liard","codePostal":"14700","presents":200,"tauxReussite":96,"vaReussite":-1,"tauxAcces":85,"vaAcces":-3,"tauxMention":56,"vaMention":-9,"ips":106.5,"ecartTypeIps":33.5},{"uai":"0141169V","nom":"Institution Fremont","ville":"Lisieux","departement":"Calvados","codeDept":"14","academie":"Normaie","region":"Normaie","secteur":"privé sous contrat","type":"GT","lat":49.147198373527544,"lng":0.2238003024260806,"adresse":"12 rue Paul Banaston","codePostal":"14100","presents":63,"tauxReussite":90,"vaReussite":-8,"tauxAcces":84,"vaAcces":-5,"tauxMention":62,"vaMention":-12,"ips":126.5,"ecartTypeIps":29.7},{"uai":"0141275K","nom":"Lycee Paul Cornu (general Et Techno.)","ville":"Lisieux","departement":"Calvados","codeDept":"14","academie":"Normaie","region":"Normaie","secteur":"public","type":"GT","lat":49.16267073430605,"lng":0.218879791451229,"adresse":"9 rue Paul Cornu","codePostal":"14107","presents":95,"tauxReussite":86,"vaReussite":-7,"tauxAcces":75,"vaAcces":-7,"tauxMention":51,"vaMention":7,"ips":92.6,"ecartTypeIps":26.2},{"uai":"0150747F","nom":"Lycee Mauriac","ville":"Mauriac","departement":"Cantal","codeDept":"15","academie":"Clermont-Ferra","region":"Auvergne-Rhone-Alpes","secteur":"public","type":"GT","lat":45.2133038762988,"lng":2.3406404644158756,"adresse":"Avenue Raymond Cortat","codePostal":"15200","presents":72,"tauxReussite":99,"vaReussite":1,"tauxAcces":84,"vaAcces":-5,"tauxMention":62,"vaMention":-6,"ips":110.7,"ecartTypeIps":28.7},{"uai":"0160004T","nom":"Lycee Charles A. Coulomb","ville":"Angouleme","departement":"Charente","codeDept":"16","academie":"Poitiers","region":"Nouvelle-Aquitaine","secteur":"public","type":"GT","lat":45.63020030226998,"lng":0.15831998093155397,"adresse":"Allée Joachim du Bellay","codePostal":"16000","presents":284,"tauxReussite":98,"vaReussite":0,"tauxAcces":83,"vaAcces":-5,"tauxMention":68,"vaMention":-3,"ips":115.3,"ecartTypeIps":32},{"uai":"0160020K","nom":"Lycee Jean Monnet (general Et Techno.)","ville":"Cognac","departement":"Charente","codeDept":"16","academie":"Poitiers","region":"Nouvelle-Aquitaine","secteur":"public","type":"GT","lat":45.70132066254107,"lng":-0.318159855469971,"adresse":"66 boulevard de Chatenay","codePostal":"16121","presents":270,"tauxReussite":97,"vaReussite":0,"tauxAcces":91,"vaAcces":4,"tauxMention":59,"vaMention":-3,"ips":107.3,"ecartTypeIps":31.9},{"uai":"0160065J","nom":"Lycee De Beaulieu","ville":"Cognac","departement":"Charente","codeDept":"16","academie":"Poitiers","region":"Nouvelle-Aquitaine","secteur":"privé sous contrat","type":"GT","lat":45.6940344630659,"lng":-0.3309901232827472,"adresse":"23 place Beaulieu","codePostal":"16100","presents":68,"tauxReussite":100,"vaReussite":1,"tauxAcces":90,"vaAcces":0,"tauxMention":78,"vaMention":0,"ips":121.7,"ecartTypeIps":26},{"uai":"0170029P","nom":"Lycee Leonce Vieljeux (general Et Techno.)","ville":"La Rochelle","departement":"Charente-Maritime","codeDept":"17","academie":"Poitiers","region":"Nouvelle-Aquitaine","secteur":"public","type":"GT","lat":46.1775939773852,"lng":-1.1510104830182661,"adresse":"118 rue des Gonthières","codePostal":"17026","presents":367,"tauxReussite":97,"vaReussite":-1,"tauxAcces":85,"vaAcces":-3,"tauxMention":63,"vaMention":-6,"ips":119.5,"ecartTypeIps":33},{"uai":"0170058W","nom":"Lycee Bellevue","ville":"Saintes","departement":"Charente-Maritime","codeDept":"17","academie":"Poitiers","region":"Nouvelle-Aquitaine","secteur":"public","type":"GT","lat":45.73700107131033,"lng":-0.6434894944373473,"adresse":"1 chemin des cotières","codePostal":"17107","presents":281,"tauxReussite":96,"vaReussite":-1,"tauxAcces":86,"vaAcces":-2,"tauxMention":66,"vaMention":-1,"ips":117.5,"ecartTypeIps":34.1},{"uai":"0170060Y","nom":"Lycee Bernard Palissy","ville":"Saintes","departement":"Charente-Maritime","codeDept":"17","academie":"Poitiers","region":"Nouvelle-Aquitaine","secteur":"public","type":"GT","lat":45.73503489068187,"lng":-0.6145802387898329,"adresse":"1 rue de Gascogne","codePostal":"17107","presents":242,"tauxReussite":97,"vaReussite":0,"tauxAcces":80,"vaAcces":-7,"tauxMention":56,"vaMention":-3,"ips":112.7,"ecartTypeIps":31.3},{"uai":"0170070J","nom":"Lycee Du Pays D'aunis (general Et Techno.)","ville":"Surgeres","departement":"Charente-Maritime","codeDept":"17","academie":"Poitiers","region":"Nouvelle-Aquitaine","secteur":"public","type":"GT","lat":46.10899579921577,"lng":-0.7485695907294311,"adresse":"Rue du Stade","codePostal":"17700","presents":67,"tauxReussite":97,"vaReussite":-1,"tauxAcces":85,"vaAcces":-3,"tauxMention":55,"vaMention":-17,"ips":105.7,"ecartTypeIps":30.7},{"uai":"0171428K","nom":"Lycee De La Mer Et Du Littoral","ville":"Bourcefranc Le Chapus","departement":"Charente-Maritime","codeDept":"17","academie":"Poitiers","region":"Nouvelle-Aquitaine","secteur":"public","type":"GT","lat":45.84674464949382,"lng":-1.1570495790048279,"adresse":"Rue William Bertrand","codePostal":"17560","presents":157,"tauxReussite":97,"vaReussite":1,"tauxAcces":79,"vaAcces":-6,"tauxMention":52,"vaMention":-2,"ips":109.7,"ecartTypeIps":30.4},{"uai":"0180006J","nom":"Lycee Marguerite De Navarre","ville":"Bourges","departement":"Cher","codeDept":"18","academie":"Orleans-Tours","region":"Centre-Val De Loire","secteur":"public","type":"GT","lat":47.08189996056373,"lng":2.3823898880211773,"adresse":"50 rue de Vauvert","codePostal":"18016","presents":330,"tauxReussite":98,"vaReussite":0,"tauxAcces":86,"vaAcces":-1,"tauxMention":65,"vaMention":-2,"ips":117.3,"ecartTypeIps":34.5},{"uai":"0190011J","nom":"Lycee D Arsonval","ville":"Brive La Gaillarde","departement":"Correze","codeDept":"19","academie":"Limoges","region":"Nouvelle-Aquitaine","secteur":"public","type":"GT","lat":45.16021218275607,"lng":1.5295602931013443,"adresse":"Place du 15 Aout 1944","codePostal":"19100","presents":338,"tauxReussite":99,"vaReussite":1,"tauxAcces":91,"vaAcces":2,"tauxMention":69,"vaMention":-1,"ips":114.9,"ecartTypeIps":33.1},{"uai":"0190038N","nom":"Lycee Bernart De Ventadour","ville":"Ussel","departement":"Correze","codeDept":"19","academie":"Limoges","region":"Nouvelle-Aquitaine","secteur":"public","type":"GT","lat":45.54172240237944,"lng":2.315443262702489,"adresse":"Boulevard de la Jaloustre","codePostal":"19200","presents":121,"tauxReussite":99,"vaReussite":3,"tauxAcces":90,"vaAcces":3,"tauxMention":63,"vaMention":4,"ips":108.1,"ecartTypeIps":30.6},{"uai":"0210013A","nom":"Lycee Desire Nisard (general Et Techno.)","ville":"Chatillon Sur Seine","departement":"Cote D'or","codeDept":"21","academie":"Dijon","region":"Bourgogne-Franche-Comte","secteur":"public","type":"GT","lat":47.86254460720092,"lng":4.578774899706797,"adresse":"19 rue de Seine","codePostal":"21402","presents":70,"tauxReussite":96,"vaReussite":1,"tauxAcces":87,"vaAcces":1,"tauxMention":54,"vaMention":1,"ips":99,"ecartTypeIps":30.5},{"uai":"0210018F","nom":"Lycee Hippolyte Fontaine (general Et Techno.)","ville":"Dijon","departement":"Cote D'or","codeDept":"21","academie":"Dijon","region":"Bourgogne-Franche-Comte","secteur":"public","type":"GT","lat":47.31764588552296,"lng":5.051077641890806,"adresse":"20 boulevard Voltaire","codePostal":"21033","presents":190,"tauxReussite":93,"vaReussite":-3,"tauxAcces":88,"vaAcces":1,"tauxMention":56,"vaMention":-7,"ips":101.1,"ecartTypeIps":32.6},{"uai":"0211068X","nom":"Lycee Du Saint Coeur","ville":"Beaune","departement":"Cote D'or","codeDept":"21","academie":"Dijon","region":"Bourgogne-Franche-Comte","secteur":"privé sous contrat","type":"GT","lat":47.02793047212533,"lng":4.83962046115028,"adresse":"3 rue du Faubourg Saint-Nicolas","codePostal":"21201","presents":80,"tauxReussite":100,"vaReussite":1,"tauxAcces":75,"vaAcces":-15,"tauxMention":80,"vaMention":-3,"ips":130.5,"ecartTypeIps":28.1},{"uai":"0211909L","nom":"Lycee Jean-Marc Boivin","ville":"Chevigny Saint Sauveur","departement":"Cote D'or","codeDept":"21","academie":"Dijon","region":"Bourgogne-Franche-Comte","secteur":"public","type":"GT","lat":47.30296679609256,"lng":5.127530101189113,"adresse":"4 bis route de Dijon","codePostal":"21806","presents":167,"tauxReussite":94,"vaReussite":-3,"tauxAcces":89,"vaAcces":1,"tauxMention":59,"vaMention":-6,"ips":120.7,"ecartTypeIps":34.3},{"uai":"0211928G","nom":"Lycee International Charles De Gaulle","ville":"Dijon","departement":"Cote D'or","codeDept":"21","academie":"Dijon","region":"Bourgogne-Franche-Comte","secteur":"public","type":"GT","lat":47.349172077861134,"lng":5.042366309595201,"adresse":"25 avenue Touzet du Vigier","codePostal":"21000","presents":319,"tauxReussite":98,"vaReussite":-1,"tauxAcces":87,"vaAcces":-3,"tauxMention":79,"vaMention":-5,"ips":132.2,"ecartTypeIps":33.7},{"uai":"0212015B","nom":"Lycee Simone Weil (general Et Techno.)","ville":"Dijon","departement":"Cote D'or","codeDept":"21","academie":"Dijon","region":"Bourgogne-Franche-Comte","secteur":"public","type":"GT","lat":47.32141498795557,"lng":5.05064953550878,"adresse":"1 rue Pelletier de Chambure","codePostal":"21000","presents":66,"tauxReussite":94,"vaReussite":-1,"tauxAcces":86,"vaAcces":2,"tauxMention":44,"vaMention":-3,"ips":94.1,"ecartTypeIps":27.6},{"uai":"0212045J","nom":"Lycee E.j. Marey (general Et Techno.)","ville":"Beaune","departement":"Cote D'or","codeDept":"21","academie":"Dijon","region":"Bourgogne-Franche-Comte","secteur":"public","type":"GT","lat":47.02991281909782,"lng":4.850879519017569,"adresse":"5 rue du 16e Chasseur","codePostal":"21206","presents":184,"tauxReussite":96,"vaReussite":-1,"tauxAcces":87,"vaAcces":0,"tauxMention":56,"vaMention":-7,"ips":107.2,"ecartTypeIps":32.7},{"uai":"0220018A","nom":"Lycee Auguste Pavie","ville":"Guingamp","departement":"Cotes D'armor","codeDept":"22","academie":"Rennes","region":"Bretagne","secteur":"public","type":"GT","lat":48.55757698985355,"lng":-3.1474901478791177,"adresse":"13 rue Anatole Le Braz","codePostal":"22205","presents":230,"tauxReussite":100,"vaReussite":2,"tauxAcces":84,"vaAcces":-4,"tauxMention":64,"vaMention":-2,"ips":109.1,"ecartTypeIps":31.2},{"uai":"0220056S","nom":"Lycee Francois Rabelais","ville":"Saint Brieuc","departement":"Cotes D'armor","codeDept":"22","academie":"Rennes","region":"Bretagne","secteur":"public","type":"GT","lat":48.50464437414538,"lng":-2.7473105304058287,"adresse":"8 rue Rabelais","codePostal":"22022","presents":259,"tauxReussite":97,"vaReussite":-1,"tauxAcces":85,"vaAcces":-3,"tauxMention":64,"vaMention":-4,"ips":112.7,"ecartTypeIps":33.9},{"uai":"0220058U","nom":"Lycee Chaptal (general Et Techno.)","ville":"Saint Brieuc","departement":"Cotes D'armor","codeDept":"22","academie":"Rennes","region":"Bretagne","secteur":"public","type":"GT","lat":48.51237673676488,"lng":-2.7360594254372805,"adresse":"6 allée Chaptal","codePostal":"22000","presents":94,"tauxReussite":99,"vaReussite":2,"tauxAcces":96,"vaAcces":12,"tauxMention":66,"vaMention":4,"ips":103,"ecartTypeIps":32.1},{"uai":"0220097L","nom":"Lycee Notre Dame","ville":"Guingamp","departement":"Cotes D'armor","codeDept":"22","academie":"Rennes","region":"Bretagne","secteur":"privé sous contrat","type":"GT","lat":48.562440615195335,"lng":-3.1426202883760856,"adresse":"21 rue des Capucins","codePostal":"22205","presents":192,"tauxReussite":94,"vaReussite":-4,"tauxAcces":79,"vaAcces":-9,"tauxMention":59,"vaMention":-7,"ips":117.6,"ecartTypeIps":31.1},{"uai":"0230025C","nom":"Lycee Raymo Loewy","ville":"La Souterraine","departement":"Creuse","codeDept":"23","academie":"Limoges","region":"Nouvelle-Aquitaine","secteur":"public","type":"GT","lat":46.24023188876845,"lng":1.4850584475632838,"adresse":"Place Bernhausen","codePostal":"23300","presents":91,"tauxReussite":96,"vaReussite":-1,"tauxAcces":89,"vaAcces":1,"tauxMention":66,"vaMention":-5,"ips":116.4,"ecartTypeIps":31.9},{"uai":"0240013J","nom":"Lycee Giraut De Borneil","ville":"Excideuil","departement":"Dordogne","codeDept":"24","academie":"Bordeaux","region":"Nouvelle-Aquitaine","secteur":"public","type":"GT","lat":45.33888473752112,"lng":1.0466718609987775,"adresse":"10 boulevard André Dupuy","codePostal":"24160","presents":50,"tauxReussite":100,"vaReussite":4,"tauxAcces":78,"vaAcces":-8,"tauxMention":68,"vaMention":4,"ips":110.8,"ecartTypeIps":34.7},{"uai":"0241137F","nom":"Lycee Jay De Beaufort","ville":"Perigueux","departement":"Dordogne","codeDept":"24","academie":"Bordeaux","region":"Nouvelle-Aquitaine","secteur":"public","type":"GT","lat":45.18204975798852,"lng":0.7117499242719879,"adresse":"9 rue de Turenne","codePostal":"24007","presents":304,"tauxReussite":96,"vaReussite":-2,"tauxAcces":85,"vaAcces":-3,"tauxMention":63,"vaMention":-3,"ips":111.4,"ecartTypeIps":31.2},{"uai":"0250008Y","nom":"Lycee Louis Pasteur","ville":"Besancon","departement":"Doubs","codeDept":"25","academie":"Besancon","region":"Bourgogne-Franche-Comte","secteur":"public","type":"GT","lat":47.23804940780935,"lng":6.019869609317338,"adresse":"4 rue du Lycée","codePostal":"25043","presents":379,"tauxReussite":96,"vaReussite":-2,"tauxAcces":88,"vaAcces":0,"tauxMention":61,"vaMention":-8,"ips":123.7,"ecartTypeIps":37},{"uai":"0250058C","nom":"Lycee Arma Peugeot","ville":"Valentigney","departement":"Doubs","codeDept":"25","academie":"Besancon","region":"Bourgogne-Franche-Comte","secteur":"public","type":"GT","lat":47.469764977037784,"lng":6.826929961864551,"adresse":"30 rue des Carrières","codePostal":"25702","presents":277,"tauxReussite":93,"vaReussite":-2,"tauxAcces":92,"vaAcces":5,"tauxMention":55,"vaMention":-2,"ips":98.9,"ecartTypeIps":36.4},{"uai":"0251711Z","nom":"Lycee Claude Nicolas Ledoux (general Et Techno.)","ville":"Besancon","departement":"Doubs","codeDept":"25","academie":"Besancon","region":"Bourgogne-Franche-Comte","secteur":"public","type":"GT","lat":47.25368532957058,"lng":5.999970193747298,"adresse":"14 rue Alain Savary","codePostal":"25006","presents":225,"tauxReussite":96,"vaReussite":-1,"tauxAcces":88,"vaAcces":1,"tauxMention":66,"vaMention":-1,"ips":115.5,"ecartTypeIps":37.7},{"uai":"0260008T","nom":"Lycee Du Diois","ville":"Die","departement":"Drome","codeDept":"26","academie":"Grenoble","region":"Auvergne-Rhone-Alpes","secteur":"public","type":"GT","lat":44.75677988240906,"lng":5.366639067119506,"adresse":"Avenue Sadi Carnot","codePostal":"26150","presents":78,"tauxReussite":97,"vaReussite":-1,"tauxAcces":95,"vaAcces":6,"tauxMention":82,"vaMention":12,"ips":126.3,"ecartTypeIps":35.4},{"uai":"0260071L","nom":"Lycee Saint Victor","ville":"Valence","departement":"Drome","codeDept":"26","academie":"Grenoble","region":"Auvergne-Rhone-Alpes","secteur":"privé sous contrat","type":"GT","lat":44.92477490747327,"lng":4.8895796456001115,"adresse":"3 rue de la Cécile","codePostal":"26000","presents":117,"tauxReussite":100,"vaReussite":2,"tauxAcces":87,"vaAcces":-3,"tauxMention":71,"vaMention":-1,"ips":130.3,"ecartTypeIps":31.7},{"uai":"0260113G","nom":"Lycee Les Catalins (general Et Techno.)","ville":"Montelimar","departement":"Drome","codeDept":"26","academie":"Grenoble","region":"Auvergne-Rhone-Alpes","secteur":"public","type":"GT","lat":44.570968040118835,"lng":4.759670147265784,"adresse":"24 avenue des Catalins","codePostal":"26201","presents":259,"tauxReussite":96,"vaReussite":1,"tauxAcces":88,"vaAcces":4,"tauxMention":60,"vaMention":7,"ips":98.6,"ecartTypeIps":31.4},{"uai":"0261277X","nom":"Lycee Les Trois Sources","ville":"Bourg Les Valence","departement":"Drome","codeDept":"26","academie":"Grenoble","region":"Auvergne-Rhone-Alpes","secteur":"public","type":"GT","lat":44.955622468358044,"lng":4.89821977384518,"adresse":"110 chemin du Valentin","codePostal":"26501","presents":219,"tauxReussite":90,"vaReussite":-3,"tauxAcces":81,"vaAcces":-3,"tauxMention":46,"vaMention":-4,"ips":100.3,"ecartTypeIps":35.1},{"uai":"0261505V","nom":"Lycee Algoud - Laffemas (general Et Techno.)","ville":"Valence","departement":"Drome","codeDept":"26","academie":"Grenoble","region":"Auvergne-Rhone-Alpes","secteur":"public","type":"GT","lat":44.918186245177196,"lng":4.916908181249479,"adresse":"37-39 Rue Barthélémy de Laffemas","codePostal":"26901","presents":502,"tauxReussite":93,"vaReussite":-1,"tauxAcces":86,"vaAcces":1,"tauxMention":48,"vaMention":-5,"ips":106.7,"ecartTypeIps":34.1},{"uai":"0270017X","nom":"Lycee Modeste Leroy","ville":"Evreux","departement":"Eure","codeDept":"27","academie":"Normaie","region":"Normaie","secteur":"public","type":"GT","lat":49.02202725372725,"lng":1.1659304214995325,"adresse":"32 rue Pierre Brossolette","codePostal":"27016","presents":252,"tauxReussite":96,"vaReussite":-1,"tauxAcces":81,"vaAcces":-6,"tauxMention":57,"vaMention":-5,"ips":113.6,"ecartTypeIps":33.2},{"uai":"0270042Z","nom":"Lycee Porte De Normaie","ville":"Verneuil D Avre Et D Iton","departement":"Eure","codeDept":"27","academie":"Normaie","region":"Normaie","secteur":"public","type":"GT","lat":48.74118462197332,"lng":0.9126600785917509,"adresse":"830 boulevard des Poissonniers","codePostal":"27130","presents":211,"tauxReussite":96,"vaReussite":1,"tauxAcces":88,"vaAcces":2,"tauxMention":53,"vaMention":0,"ips":109,"ecartTypeIps":32.5},{"uai":"0271053Y","nom":"Lycee Saint Adjutor","ville":"Vernon","departement":"Eure","codeDept":"27","academie":"Normaie","region":"Normaie","secteur":"privé sous contrat","type":"GT","lat":49.0859443237017,"lng":1.4575603617712103,"adresse":"54 rue de Marzelles","codePostal":"27200","presents":113,"tauxReussite":100,"vaReussite":1,"tauxAcces":85,"vaAcces":-4,"tauxMention":73,"vaMention":-4,"ips":139,"ecartTypeIps":28.7},{"uai":"0271070S","nom":"Lycee Notre Dame - Saint Francois (general Et Techno.)","ville":"Evreux","departement":"Eure","codeDept":"27","academie":"Normaie","region":"Normaie","secteur":"privé sous contrat","type":"GT","lat":49.016343599958255,"lng":1.148869855847332,"adresse":"8 rue Portevin","codePostal":"27000","presents":79,"tauxReussite":99,"vaReussite":2,"tauxAcces":86,"vaAcces":-2,"tauxMention":57,"vaMention":-3,"ips":112,"ecartTypeIps":30.8},{"uai":"0271582Y","nom":"Lycee Marc Bloch","ville":"Val De Reuil","departement":"Eure","codeDept":"27","academie":"Normaie","region":"Normaie","secteur":"public","type":"GT","lat":49.2682488269445,"lng":1.2026898590201793,"adresse":"1 voie Bachelière","codePostal":"27106","presents":192,"tauxReussite":97,"vaReussite":2,"tauxAcces":86,"vaAcces":1,"tauxMention":43,"vaMention":-7,"ips":102.2,"ecartTypeIps":36.2},{"uai":"0290022S","nom":"Lycee Paul Serusier (general Et Techno.)","ville":"Carhaix Plouguer","departement":"Finistere","codeDept":"29","academie":"Rennes","region":"Bretagne","secteur":"public","type":"GT","lat":48.27907860884908,"lng":-3.5516305894704203,"adresse":"Avenue de Waldkappel","codePostal":"29837","presents":109,"tauxReussite":98,"vaReussite":2,"tauxAcces":85,"vaAcces":-2,"tauxMention":65,"vaMention":5,"ips":96.9,"ecartTypeIps":27.4},{"uai":"0290034E","nom":"Lycee Jean-Marie Le Bris","ville":"Douarnenez","departement":"Finistere","codeDept":"29","academie":"Rennes","region":"Bretagne","secteur":"public","type":"GT","lat":48.08427266896904,"lng":-4.325670087197783,"adresse":"2 place du Lycée","codePostal":"29172","presents":96,"tauxReussite":100,"vaReussite":2,"tauxAcces":91,"vaAcces":3,"tauxMention":66,"vaMention":1,"ips":116.9,"ecartTypeIps":32.6},{"uai":"0290160S","nom":"Lycee St Francois-Notre Dame","ville":"Lesneven","departement":"Finistere","codeDept":"29","academie":"Rennes","region":"Bretagne","secteur":"privé sous contrat","type":"GT","lat":48.57030898196225,"lng":-4.325230655873059,"adresse":"1 rue des Récollets","codePostal":"29260","presents":139,"tauxReussite":100,"vaReussite":1,"tauxAcces":90,"vaAcces":0,"tauxMention":84,"vaMention":10,"ips":120.1,"ecartTypeIps":30.1},{"uai":"0290164W","nom":"Lycee Notre Dame Du Mur","ville":"Morlaix","departement":"Finistere","codeDept":"29","academie":"Rennes","region":"Bretagne","secteur":"privé sous contrat","type":"GT","lat":48.57561771036415,"lng":-3.835180209546095,"adresse":"19 rue du Poulfanc","codePostal":"29678","presents":108,"tauxReussite":97,"vaReussite":-1,"tauxAcces":91,"vaAcces":3,"tauxMention":58,"vaMention":-9,"ips":121.5,"ecartTypeIps":30.4},{"uai":"0290171D","nom":"Lycee Ste Therese","ville":"Quimper","departement":"Finistere","codeDept":"29","academie":"Rennes","region":"Bretagne","secteur":"privé sous contrat","type":"GT","lat":47.98103144766769,"lng":-4.095710556596959,"adresse":"56 avenue de Remscheid","codePostal":"29337","presents":178,"tauxReussite":99,"vaReussite":0,"tauxAcces":87,"vaAcces":-2,"tauxMention":79,"vaMention":5,"ips":129.5,"ecartTypeIps":31.3},{"uai":"0290186V","nom":"Lycee Le Paraclet (general Et Techno.)","ville":"Quimper","departement":"Finistere","codeDept":"29","academie":"Rennes","region":"Bretagne","secteur":"privé sous contrat","type":"GT","lat":47.995122045776995,"lng":-4.114130402914331,"adresse":"35 avenue des Glénan","codePostal":"29018","presents":56,"tauxReussite":100,"vaReussite":1,"tauxAcces":97,"vaAcces":10,"tauxMention":77,"vaMention":4,"ips":112.2,"ecartTypeIps":31},{"uai":"0291654R","nom":"Lycee St Joseph (general Et Techno.)","ville":"Concarneau","departement":"Finistere","codeDept":"29","academie":"Rennes","region":"Bretagne","secteur":"privé sous contrat","type":"GT","lat":47.87402664863521,"lng":-3.9218698104634426,"adresse":"61 rue Bayard","codePostal":"29187","presents":107,"tauxReussite":99,"vaReussite":1,"tauxAcces":90,"vaAcces":1,"tauxMention":76,"vaMention":5,"ips":120.9,"ecartTypeIps":31.6},{"uai":"0292137R","nom":"Lycee Diwan","ville":"Carhaix Plouguer","departement":"Finistere","codeDept":"29","academie":"Rennes","region":"Bretagne","secteur":"privé sous contrat","type":"GT","lat":48.273316423023736,"lng":-3.5596793993488527,"adresse":"Kerampuilh","codePostal":"29270","presents":80,"tauxReussite":99,"vaReussite":1,"tauxAcces":90,"vaAcces":1,"tauxMention":74,"vaMention":6,"ips":131.7,"ecartTypeIps":31.9},{"uai":"0300083C","nom":"Lycee Saint Stanislas","ville":"Nimes","departement":"Gard","codeDept":"30","academie":"Montpellier","region":"Occitanie","secteur":"privé sous contrat","type":"GT","lat":43.837336686741644,"lng":4.3523203469578995,"adresse":"16 rue des Chassaintes","codePostal":"30906","presents":88,"tauxReussite":100,"vaReussite":3,"tauxAcces":75,"vaAcces":-11,"tauxMention":70,"vaMention":7,"ips":121.5,"ecartTypeIps":32.7},{"uai":"0300127A","nom":"Lycee St Vincent De Paul (general Et Techno.)","ville":"Nimes","departement":"Gard","codeDept":"30","academie":"Montpellier","region":"Occitanie","secteur":"privé sous contrat","type":"GT","lat":43.834109902792484,"lng":4.3625302479765935,"adresse":"3 boulevard de Bruxelles","codePostal":"30020","presents":189,"tauxReussite":100,"vaReussite":3,"tauxAcces":92,"vaAcces":4,"tauxMention":68,"vaMention":8,"ips":111.3,"ecartTypeIps":29.8},{"uai":"0310017A","nom":"Lycee Paul Mathou (general Et Techno.)","ville":"Gourdan Polignan","departement":"Haute-Garonne","codeDept":"31","academie":"Toulouse","region":"Occitanie","secteur":"public","type":"GT","lat":43.07672187924185,"lng":0.5837502023855834,"adresse":"29 avenue de Luchon","codePostal":"31210","presents":100,"tauxReussite":99,"vaReussite":2,"tauxAcces":69,"vaAcces":-18,"tauxMention":61,"vaMention":-1,"ips":102.8,"ecartTypeIps":29.2},{"uai":"0310036W","nom":"Lycee Pierre De Fermat","ville":"Toulouse","departement":"Haute-Garonne","codeDept":"31","academie":"Toulouse","region":"Occitanie","secteur":"public","type":"GT","lat":43.6032751508944,"lng":1.4398952901892104,"adresse":"3 allée Maurice Prin","codePostal":"31010","presents":282,"tauxReussite":98,"vaReussite":-1,"tauxAcces":89,"vaAcces":0,"tauxMention":79,"vaMention":-5,"ips":141.6,"ecartTypeIps":35.4},{"uai":"0310041B","nom":"Lycee Saint-Sernin","ville":"Toulouse","departement":"Haute-Garonne","codeDept":"31","academie":"Toulouse","region":"Occitanie","secteur":"public","type":"GT","lat":43.608689274370356,"lng":1.440150577277135,"adresse":"3 place Saint-Sernin","codePostal":"31070","presents":518,"tauxReussite":99,"vaReussite":0,"tauxAcces":91,"vaAcces":3,"tauxMention":80,"vaMention":-1,"ips":139.2,"ecartTypeIps":35.3},{"uai":"0310044E","nom":"Lycee Deodat De Severac (general Et Techno.)","ville":"Toulouse","departement":"Haute-Garonne","codeDept":"31","academie":"Toulouse","region":"Occitanie","secteur":"public","type":"GT","lat":43.58914042072771,"lng":1.4264598048930772,"adresse":"26 boulevard Déodat de Séverac","codePostal":"31076","presents":368,"tauxReussite":89,"vaReussite":-3,"tauxAcces":80,"vaAcces":-2,"tauxMention":40,"vaMention":-5,"ips":107.6,"ecartTypeIps":39.3},{"uai":"0311133N","nom":"Lycee Le Caousou","ville":"Toulouse","departement":"Haute-Garonne","codeDept":"31","academie":"Toulouse","region":"Occitanie","secteur":"privé sous contrat","type":"GT","lat":43.59989376136917,"lng":1.4608197081090182,"adresse":"42 avenue Camille Pujol","codePostal":"31079","presents":201,"tauxReussite":100,"vaReussite":1,"tauxAcces":83,"vaAcces":-9,"tauxMention":96,"vaMention":6,"ips":152.2,"ecartTypeIps":24.2},{"uai":"0311145B","nom":"Lycee Saint-Joseph - La Salle","ville":"Toulouse","departement":"Haute-Garonne","codeDept":"31","academie":"Toulouse","region":"Occitanie","secteur":"privé sous contrat","type":"GT","lat":43.5932877602121,"lng":1.4740523233705745,"adresse":"85 rue de Limayrac","codePostal":"31079","presents":278,"tauxReussite":100,"vaReussite":1,"tauxAcces":89,"vaAcces":-1,"tauxMention":90,"vaMention":5,"ips":147,"ecartTypeIps":28.6},{"uai":"0311146C","nom":"Lycee Sainte-Marie Des Champs","ville":"Toulouse","departement":"Haute-Garonne","codeDept":"31","academie":"Toulouse","region":"Occitanie","secteur":"privé sous contrat","type":"GT","lat":43.590758355912854,"lng":1.4697229849204894,"adresse":"169 avenue Jean Rieux","codePostal":"31506","presents":220,"tauxReussite":100,"vaReussite":1,"tauxAcces":86,"vaAcces":-3,"tauxMention":90,"vaMention":11,"ips":144.7,"ecartTypeIps":28.1},{"uai":"0311902Z","nom":"Lycee Stephane Hessel","ville":"Toulouse","departement":"Haute-Garonne","codeDept":"31","academie":"Toulouse","region":"Occitanie","secteur":"public","type":"GT","lat":43.61613609499977,"lng":1.4758401040015245,"adresse":"44 chemin Cassaing","codePostal":"31079","presents":464,"tauxReussite":92,"vaReussite":-4,"tauxAcces":79,"vaAcces":-6,"tauxMention":51,"vaMention":-8,"ips":113.5,"ecartTypeIps":37},{"uai":"0312093G","nom":"Lycee International Victor Hugo","ville":"Colomiers","departement":"Haute-Garonne","codeDept":"31","academie":"Toulouse","region":"Occitanie","secteur":"public","type":"GT","lat":43.61591636828388,"lng":1.3082105400373223,"adresse":"33 boulevard Victor Hugo","codePostal":"31773","presents":419,"tauxReussite":95,"vaReussite":-3,"tauxAcces":88,"vaAcces":1,"tauxMention":68,"vaMention":-6,"ips":126,"ecartTypeIps":38.1},{"uai":"0312267W","nom":"Lycee Des Arenes","ville":"Toulouse","departement":"Haute-Garonne","codeDept":"31","academie":"Toulouse","region":"Occitanie","secteur":"public","type":"GT","lat":43.592246255804255,"lng":1.4186001279568254,"adresse":"Place Émile Male","codePostal":"31024","presents":281,"tauxReussite":93,"vaReussite":-2,"tauxAcces":82,"vaAcces":-2,"tauxMention":58,"vaMention":-3,"ips":116.7,"ecartTypeIps":39},{"uai":"0312289V","nom":"Lycee Pierre-Paul Riquet","ville":"Labege","departement":"Haute-Garonne","codeDept":"31","academie":"Toulouse","region":"Occitanie","secteur":"public","type":"GT","lat":43.53984199380689,"lng":1.5487112571127981,"adresse":"2 avenue du lycée","codePostal":"31671","presents":470,"tauxReussite":98,"vaReussite":0,"tauxAcces":90,"vaAcces":1,"tauxMention":70,"vaMention":-7,"ips":134.4,"ecartTypeIps":34.4},{"uai":"0312686B","nom":"Lycee Saint-Exupery (general Et Techno.)","ville":"Blagnac","departement":"Haute-Garonne","codeDept":"31","academie":"Toulouse","region":"Occitanie","secteur":"public","type":"GT","lat":43.65330243738439,"lng":1.3755795741196881,"adresse":"1 place Alain Savary","codePostal":"31703","presents":355,"tauxReussite":97,"vaReussite":0,"tauxAcces":88,"vaAcces":1,"tauxMention":68,"vaMention":-2,"ips":118.2,"ecartTypeIps":36.6},{"uai":"0312754A","nom":"Lycee Clemence Royer","ville":"Fonsorbes","departement":"Haute-Garonne","codeDept":"31","academie":"Toulouse","region":"Occitanie","secteur":"public","type":"GT","lat":43.5285541560439,"lng":1.2075304595952796,"adresse":"3 avenue Lucie Aubrac","codePostal":"31470","presents":318,"tauxReussite":99,"vaReussite":1,"tauxAcces":91,"vaAcces":2,"tauxMention":75,"vaMention":3,"ips":130.8,"ecartTypeIps":34.4},{"uai":"0313016K","nom":"Ensemble Scolaire Sainte Genevieve","ville":"Saint Jory","departement":"Haute-Garonne","codeDept":"31","academie":"Toulouse","region":"Occitanie","secteur":"privé sous contrat","type":"GT","lat":43.74109881681196,"lng":1.3698640015810675,"adresse":"5 rue de l'Espérance","codePostal":"31790","presents":42,"tauxReussite":100,"vaReussite":2,"tauxAcces":88,"vaAcces":-2,"tauxMention":79,"vaMention":9,"ips":124.2,"ecartTypeIps":29.6},{"uai":"0320015T","nom":"Lycee Marechal Lannes (general Et Techno.)","ville":"Lectoure","departement":"Gers","codeDept":"32","academie":"Toulouse","region":"Occitanie","secteur":"public","type":"GT","lat":43.9309034481255,"lng":0.629310333132401,"adresse":"1 place Pierre Brossolette","codePostal":"32700","presents":83,"tauxReussite":95,"vaReussite":-2,"tauxAcces":87,"vaAcces":0,"tauxMention":61,"vaMention":-5,"ips":108.9,"ecartTypeIps":34.4},{"uai":"0330020T","nom":"Lycee Jaufre Rudel","ville":"Blaye","departement":"Giroe","codeDept":"33","academie":"Bordeaux","region":"Nouvelle-Aquitaine","secteur":"public","type":"GT","lat":45.12378511042626,"lng":-0.6606487305042764,"adresse":"2 rue Urbain Chasseloup","codePostal":"33394","presents":328,"tauxReussite":89,"vaReussite":-4,"tauxAcces":78,"vaAcces":-6,"tauxMention":42,"vaMention":-4,"ips":101.5,"ecartTypeIps":30.7},{"uai":"0331488N","nom":"Lycee St Elme","ville":"Arcachon","departement":"Giroe","codeDept":"33","academie":"Bordeaux","region":"Nouvelle-Aquitaine","secteur":"privé sous contrat","type":"GT","lat":44.65537882486955,"lng":-1.15258186496156,"adresse":"50 boulevard Deganne","codePostal":"33120","presents":114,"tauxReussite":100,"vaReussite":1,"tauxAcces":79,"vaAcces":-11,"tauxMention":89,"vaMention":6,"ips":134.7,"ecartTypeIps":31.4},{"uai":"0331499A","nom":"Lycee Notre Dame","ville":"Bordeaux","departement":"Giroe","codeDept":"33","academie":"Bordeaux","region":"Nouvelle-Aquitaine","secteur":"privé sous contrat","type":"GT","lat":44.84264141599289,"lng":-0.5820680837615095,"adresse":"13 rue Castéja","codePostal":"33000","presents":44,"tauxReussite":100,"vaReussite":2,"tauxAcces":64,"vaAcces":-23,"tauxMention":52,"vaMention":-16,"ips":129.8,"ecartTypeIps":25.4},{"uai":"0331556M","nom":"Lycee Ste Famille Saintonge","ville":"Bordeaux","departement":"Giroe","codeDept":"33","academie":"Bordeaux","region":"Nouvelle-Aquitaine","secteur":"privé sous contrat","type":"GT","lat":44.83214235441901,"lng":-0.5800684109149119,"adresse":"12 rue de Saintonge","codePostal":"33000","presents":58,"tauxReussite":95,"vaReussite":-1,"tauxAcces":71,"vaAcces":-13,"tauxMention":41,"vaMention":-13,"ips":125.2,"ecartTypeIps":33.3},{"uai":"0331591A","nom":"Lycee Bel Orme","ville":"Bordeaux","departement":"Giroe","codeDept":"33","academie":"Bordeaux","region":"Nouvelle-Aquitaine","secteur":"privé sous contrat","type":"GT","lat":44.849789279906226,"lng":-0.5941612521143088,"adresse":"67 rue de Bel Orme","codePostal":"33000","presents":130,"tauxReussite":96,"vaReussite":-1,"tauxAcces":78,"vaAcces":-8,"tauxMention":42,"vaMention":-18,"ips":122.7,"ecartTypeIps":30.8},{"uai":"0331760J","nom":"Lycee Ferna Daguin","ville":"Merignac","departement":"Giroe","codeDept":"33","academie":"Bordeaux","region":"Nouvelle-Aquitaine","secteur":"public","type":"GT","lat":44.83682516582882,"lng":-0.6499132105541034,"adresse":"15 rue Gustave Flaubert","codePostal":"33698","presents":516,"tauxReussite":93,"vaReussite":-4,"tauxAcces":86,"vaAcces":-2,"tauxMention":54,"vaMention":-13,"ips":122.7,"ecartTypeIps":34.6},{"uai":"0332468D","nom":"Lycee Biologie Et Chimie St Louis","ville":"Bordeaux","departement":"Giroe","codeDept":"33","academie":"Bordeaux","region":"Nouvelle-Aquitaine","secteur":"public","type":"GT","lat":44.86648428572395,"lng":-0.5674100961785384,"adresse":"Rue Jean Hameau","codePostal":"33028","presents":109,"tauxReussite":89,"vaReussite":-7,"tauxAcces":82,"vaAcces":-4,"tauxMention":55,"vaMention":-9,"ips":107.3,"ecartTypeIps":31.3},{"uai":"0332744D","nom":"Lycee Elie Faure","ville":"Lormont","departement":"Giroe","codeDept":"33","academie":"Bordeaux","region":"Nouvelle-Aquitaine","secteur":"public","type":"GT","lat":44.86955591199073,"lng":-0.5214995676513247,"adresse":"63 avenue de la Libération","codePostal":"33305","presents":301,"tauxReussite":87,"vaReussite":-7,"tauxAcces":71,"vaAcces":-13,"tauxMention":44,"vaMention":-5,"ips":99.7,"ecartTypeIps":33.2},{"uai":"0332846P","nom":"Lycee Des Graves","ville":"Gradignan","departement":"Giroe","codeDept":"33","academie":"Bordeaux","region":"Nouvelle-Aquitaine","secteur":"public","type":"GT","lat":44.76094352966088,"lng":-0.6217753621737448,"adresse":"238 cours Général-de-Gaulle","codePostal":"33170","presents":458,"tauxReussite":97,"vaReussite":-2,"tauxAcces":90,"vaAcces":1,"tauxMention":67,"vaMention":-9,"ips":137.2,"ecartTypeIps":31.9},{"uai":"0340871M","nom":"Lycee La Trinite","ville":"Beziers","departement":"Herault","codeDept":"34","academie":"Montpellier","region":"Occitanie","secteur":"privé sous contrat","type":"GT","lat":43.34629188133018,"lng":3.21988965021648,"adresse":"6 avenue Jean Moulin","codePostal":"34503","presents":189,"tauxReussite":100,"vaReussite":1,"tauxAcces":89,"vaAcces":0,"tauxMention":88,"vaMention":8,"ips":133.9,"ecartTypeIps":30.4},{"uai":"0340991T","nom":"Lycee Nevers (general Et Techno.)","ville":"Montpellier","departement":"Herault","codeDept":"34","academie":"Montpellier","region":"Occitanie","secteur":"privé sous contrat","type":"GT","lat":43.62112341638985,"lng":3.8696500906191793,"adresse":"18 rue de la Garenne","codePostal":"34090","presents":344,"tauxReussite":100,"vaReussite":1,"tauxAcces":92,"vaAcces":2,"tauxMention":81,"vaMention":1,"ips":136.5,"ecartTypeIps":31.3},{"uai":"0341736C","nom":"Lycee Jean Monnet","ville":"Montpellier","departement":"Herault","codeDept":"34","academie":"Montpellier","region":"Occitanie","secteur":"public","type":"GT","lat":43.62870859697394,"lng":3.830936517832957,"adresse":"Rue de Malbosc","codePostal":"34088","presents":427,"tauxReussite":96,"vaReussite":2,"tauxAcces":83,"vaAcces":-2,"tauxMention":63,"vaMention":7,"ips":103.9,"ecartTypeIps":37.3},{"uai":"0341765J","nom":"Lycee Rabelais","ville":"Montpellier","departement":"Herault","codeDept":"34","academie":"Montpellier","region":"Occitanie","secteur":"privé sous contrat","type":"GT","lat":43.60248811087468,"lng":3.8833596183293224,"adresse":"36 rue des Aiguerelles","codePostal":"34000","presents":32,"tauxReussite":97,"vaReussite":null,"tauxAcces":58,"vaAcces":null,"tauxMention":38,"vaMention":null,"ips":114.1,"ecartTypeIps":28.2},{"uai":"0342091N","nom":"Lycee Marc Bloch (general Et Techno.)","ville":"Serignan","departement":"Herault","codeDept":"34","academie":"Montpellier","region":"Occitanie","secteur":"public","type":"GT","lat":43.263181338005914,"lng":3.2845805466735265,"adresse":"Avenue Georges Frêche","codePostal":"34410","presents":370,"tauxReussite":96,"vaReussite":2,"tauxAcces":89,"vaAcces":4,"tauxMention":59,"vaMention":9,"ips":102.6,"ecartTypeIps":31.8},{"uai":"0342225J","nom":"Lycee Georges Freche (general Et Techno.)","ville":"Montpellier","departement":"Herault","codeDept":"34","academie":"Montpellier","region":"Occitanie","secteur":"public","type":"GT","lat":43.604933285307496,"lng":3.9120697147625525,"adresse":"401 rue Le Titien","codePostal":"34960","presents":43,"tauxReussite":98,"vaReussite":2,"tauxAcces":82,"vaAcces":-2,"tauxMention":74,"vaMention":6,"ips":107,"ecartTypeIps":33},{"uai":"0342436N","nom":"Lycee Simone Veil (general Et Techno.)","ville":"Gignac","departement":"Herault","codeDept":"34","academie":"Montpellier","region":"Occitanie","secteur":"public","type":"GT","lat":43.64733794005231,"lng":3.5416603601035557,"adresse":"198 avenue Arnaud Beltrame","codePostal":"34150","presents":174,"tauxReussite":99,"vaReussite":1,"tauxAcces":87,"vaAcces":-1,"tauxMention":78,"vaMention":7,"ips":115.2,"ecartTypeIps":32.8},{"uai":"0350710G","nom":"Lycee Francois Rene De Chateaubria","ville":"Rennes","departement":"Ille-Et-Vilaine","codeDept":"35","academie":"Rennes","region":"Bretagne","secteur":"public","type":"GT","lat":48.1233633632789,"lng":-1.6494796949846533,"adresse":"136 boulevard de Vitré","codePostal":"35706","presents":239,"tauxReussite":97,"vaReussite":-2,"tauxAcces":88,"vaAcces":-2,"tauxMention":87,"vaMention":0,"ips":138.2,"ecartTypeIps":33.9},{"uai":"0352072M","nom":"Institution St Malo-Providence (general Et Techno.)","ville":"Saint Malo","departement":"Ille-Et-Vilaine","codeDept":"35","academie":"Rennes","region":"Bretagne","secteur":"privé sous contrat","type":"GT","lat":48.65056459764527,"lng":-2.0257701785148496,"adresse":"2 rue du Collège","codePostal":"35418","presents":289,"tauxReussite":99,"vaReussite":0,"tauxAcces":88,"vaAcces":-2,"tauxMention":72,"vaMention":-6,"ips":127.3,"ecartTypeIps":31.5},{"uai":"0352533N","nom":"Lycee Francois Rene De Chateaubria","ville":"Combourg","departement":"Ille-Et-Vilaine","codeDept":"35","academie":"Rennes","region":"Bretagne","secteur":"public","type":"GT","lat":48.41525130917533,"lng":-1.7416202300524102,"adresse":"12 avenue des Acacias","codePostal":"35270","presents":216,"tauxReussite":96,"vaReussite":-1,"tauxAcces":90,"vaAcces":3,"tauxMention":55,"vaMention":-4,"ips":119.3,"ecartTypeIps":31.8},{"uai":"0352686E","nom":"Lycee Anita Conti","ville":"Bruz","departement":"Ille-Et-Vilaine","codeDept":"35","academie":"Rennes","region":"Bretagne","secteur":"public","type":"GT","lat":48.03334269031083,"lng":-1.733614089815954,"adresse":"Esplanade Anita Conti","codePostal":"35174","presents":293,"tauxReussite":100,"vaReussite":2,"tauxAcces":93,"vaAcces":5,"tauxMention":65,"vaMention":-2,"ips":125.4,"ecartTypeIps":33.9},{"uai":"0360009P","nom":"Lycee Pierre Et Marie Curie","ville":"Chateauroux","departement":"Ire","codeDept":"36","academie":"Orleans-Tours","region":"Centre-Val De Loire","secteur":"public","type":"GT","lat":46.80937333731173,"lng":1.708559772645222,"adresse":"31 rue Pierre et Marie Curie","codePostal":"36018","presents":298,"tauxReussite":96,"vaReussite":0,"tauxAcces":77,"vaAcces":-10,"tauxMention":61,"vaMention":3,"ips":105.2,"ecartTypeIps":33.1},{"uai":"0360019A","nom":"Lycee George Sa (general Et Techno.)","ville":"La Chatre","departement":"Ire","codeDept":"36","academie":"Orleans-Tours","region":"Centre-Val De Loire","secteur":"public","type":"GT","lat":46.58353972401974,"lng":1.9774405185490846,"adresse":"25 avenue George Sand","codePostal":"36400","presents":107,"tauxReussite":96,"vaReussite":-1,"tauxAcces":92,"vaAcces":4,"tauxMention":65,"vaMention":-1,"ips":101.5,"ecartTypeIps":29.6},{"uai":"0360693H","nom":"Lycee Sainte Solange","ville":"Chateauroux","departement":"Ire","codeDept":"36","academie":"Orleans-Tours","region":"Centre-Val De Loire","secteur":"privé sous contrat","type":"GT","lat":46.81051917571467,"lng":1.6984502026842918,"adresse":"59 rue de la Gare","codePostal":"36028","presents":54,"tauxReussite":100,"vaReussite":3,"tauxAcces":89,"vaAcces":2,"tauxMention":65,"vaMention":4,"ips":120.7,"ecartTypeIps":31.6},{"uai":"0370035M","nom":"Lycee Descartes","ville":"Tours","departement":"Ire-Et-Loire","codeDept":"37","academie":"Orleans-Tours","region":"Centre-Val De Loire","secteur":"public","type":"GT","lat":47.39134338086515,"lng":0.6895302933504961,"adresse":"10 rue des Minimes","codePostal":"37010","presents":274,"tauxReussite":98,"vaReussite":-1,"tauxAcces":91,"vaAcces":1,"tauxMention":84,"vaMention":0,"ips":135.7,"ecartTypeIps":35.3},{"uai":"0370727P","nom":"Lycee Gra St Gregoire","ville":"Tours","departement":"Ire-Et-Loire","codeDept":"37","academie":"Orleans-Tours","region":"Centre-Val De Loire","secteur":"privé sous contrat","type":"GT","lat":47.40126101536642,"lng":0.6837094447493431,"adresse":"3 place Choiseul","codePostal":"37100","presents":78,"tauxReussite":99,"vaReussite":0,"tauxAcces":95,"vaAcces":5,"tauxMention":88,"vaMention":5,"ips":129.9,"ecartTypeIps":31.2},{"uai":"0380014J","nom":"Lycee Hector Berlioz (general Et Techno.)","ville":"La Cote Saint Are","departement":"Isere","codeDept":"38","academie":"Grenoble","region":"Auvergne-Rhone-Alpes","secteur":"public","type":"GT","lat":45.39033861712563,"lng":5.264660167977993,"adresse":"Place de l'Europe","codePostal":"38260","presents":231,"tauxReussite":94,"vaReussite":-3,"tauxAcces":83,"vaAcces":-4,"tauxMention":58,"vaMention":-2,"ips":102.1,"ecartTypeIps":33.1},{"uai":"0380033E","nom":"Lycee Vaucanson (general Et Techno.)","ville":"Grenoble","departement":"Isere","codeDept":"38","academie":"Grenoble","region":"Auvergne-Rhone-Alpes","secteur":"public","type":"GT","lat":45.17098601541509,"lng":5.708619688817393,"adresse":"27 rue Anatole France","codePostal":"38030","presents":184,"tauxReussite":93,"vaReussite":-3,"tauxAcces":75,"vaAcces":-9,"tauxMention":58,"vaMention":-2,"ips":111.8,"ecartTypeIps":38},{"uai":"0380063M","nom":"Lycee La Saulaie (general Et Techno.)","ville":"Saint Marcellin","departement":"Isere","codeDept":"38","academie":"Grenoble","region":"Auvergne-Rhone-Alpes","secteur":"public","type":"GT","lat":45.15764989112699,"lng":5.317670220840364,"adresse":"La Saulaie","codePostal":"38162","presents":219,"tauxReussite":95,"vaReussite":-2,"tauxAcces":85,"vaAcces":-2,"tauxMention":62,"vaMention":-1,"ips":108.5,"ecartTypeIps":34.1},{"uai":"0380073Y","nom":"Lycee Elie Cartan (general Et Techno.)","ville":"La Tour Du Pin","departement":"Isere","codeDept":"38","academie":"Grenoble","region":"Auvergne-Rhone-Alpes","secteur":"public","type":"GT","lat":45.56434764470551,"lng":5.441979352865536,"adresse":"2 rue Justin Vernet","codePostal":"38110","presents":145,"tauxReussite":97,"vaReussite":0,"tauxAcces":86,"vaAcces":-2,"tauxMention":63,"vaMention":-4,"ips":108.8,"ecartTypeIps":34.6},{"uai":"0381599G","nom":"Lycee De L'edit (general Et Techno.)","ville":"Roussillon","departement":"Isere","codeDept":"38","academie":"Grenoble","region":"Auvergne-Rhone-Alpes","secteur":"public","type":"GT","lat":45.36785405657831,"lng":4.802020377401557,"adresse":"24 avenue du Lycée","codePostal":"38150","presents":184,"tauxReussite":95,"vaReussite":1,"tauxAcces":82,"vaAcces":-2,"tauxMention":54,"vaMention":5,"ips":90.7,"ecartTypeIps":30.4},{"uai":"0382270L","nom":"Lycee Pierre Du Terrail","ville":"Pontcharra","departement":"Isere","codeDept":"38","academie":"Grenoble","region":"Auvergne-Rhone-Alpes","secteur":"public","type":"GT","lat":45.43548044970956,"lng":6.016473602915758,"adresse":"263 rue des Althaéas","codePostal":"38530","presents":331,"tauxReussite":99,"vaReussite":1,"tauxAcces":92,"vaAcces":3,"tauxMention":79,"vaMention":5,"ips":130.7,"ecartTypeIps":34},{"uai":"0382440W","nom":"Lycee Leonard De Vinci (general Et Techno.)","ville":"Villefontaine","departement":"Isere","codeDept":"38","academie":"Grenoble","region":"Auvergne-Rhone-Alpes","secteur":"public","type":"GT","lat":45.60871567430059,"lng":5.155279352473343,"adresse":"Boulevard de Villefontaine","codePostal":"38091","presents":314,"tauxReussite":92,"vaReussite":-3,"tauxAcces":87,"vaAcces":1,"tauxMention":55,"vaMention":-1,"ips":109.9,"ecartTypeIps":35.3},{"uai":"0382838D","nom":"Lycee La Pleiade","ville":"Pont De Cheruy","departement":"Isere","codeDept":"38","academie":"Grenoble","region":"Auvergne-Rhone-Alpes","secteur":"public","type":"GT","lat":45.75234306615746,"lng":5.170970629305736,"adresse":"Rue du Repos","codePostal":"38232","presents":368,"tauxReussite":93,"vaReussite":-3,"tauxAcces":88,"vaAcces":2,"tauxMention":52,"vaMention":-6,"ips":108.9,"ecartTypeIps":33.6},{"uai":"0382863F","nom":"Lycee Du Gresivaudan (general Et Techno.)","ville":"Meylan","departement":"Isere","codeDept":"38","academie":"Grenoble","region":"Auvergne-Rhone-Alpes","secteur":"public","type":"GT","lat":45.215320206261595,"lng":5.78309940182414,"adresse":"1 avenue du Taillefer","codePostal":"38240","presents":364,"tauxReussite":96,"vaReussite":-2,"tauxAcces":88,"vaAcces":0,"tauxMention":77,"vaMention":2,"ips":140.5,"ecartTypeIps":33},{"uai":"0382895R","nom":"Lycee Philibert Delorme (general Et Techno.)","ville":"L Isle D Abeau","departement":"Isere","codeDept":"38","academie":"Grenoble","region":"Auvergne-Rhone-Alpes","secteur":"public","type":"GT","lat":45.62340433016974,"lng":5.2179902077935125,"adresse":"68 boulevard Saint-Hubert","codePostal":"38081","presents":320,"tauxReussite":92,"vaReussite":-4,"tauxAcces":80,"vaAcces":-5,"tauxMention":47,"vaMention":-7,"ips":104.3,"ecartTypeIps":33.6},{"uai":"0382920T","nom":"Lycee Marie Curie","ville":"Echirolles","departement":"Isere","codeDept":"38","academie":"Grenoble","region":"Auvergne-Rhone-Alpes","secteur":"public","type":"GT","lat":45.14620717334296,"lng":5.717149823733709,"adresse":"Avenue du 8 Mai 1945","codePostal":"38435","presents":419,"tauxReussite":95,"vaReussite":1,"tauxAcces":83,"vaAcces":0,"tauxMention":59,"vaMention":10,"ips":105.2,"ecartTypeIps":35.7},{"uai":"0390091M","nom":"Lycee Jeanne D'arc","ville":"Champagnole","departement":"Jura","codeDept":"39","academie":"Besancon","region":"Bourgogne-Franche-Comte","secteur":"privé sous contrat","type":"GT","lat":46.7457476765003,"lng":5.905519967247963,"adresse":"10 rue du Sauget","codePostal":"39303","presents":21,"tauxReussite":95,"vaReussite":null,"tauxAcces":61,"vaAcces":null,"tauxMention":43,"vaMention":null,"ips":94.1,"ecartTypeIps":30.9},{"uai":"0391146J","nom":"Lycee Pasteur Mont Rola (general Et Techno.)","ville":"Dole","departement":"Jura","codeDept":"39","academie":"Besancon","region":"Bourgogne-Franche-Comte","secteur":"privé sous contrat","type":"GT","lat":47.09388744490723,"lng":5.4900800443755715,"adresse":"55 boulevard Wilson","codePostal":"39100","presents":76,"tauxReussite":99,"vaReussite":1,"tauxAcces":92,"vaAcces":4,"tauxMention":78,"vaMention":8,"ips":106.8,"ecartTypeIps":29},{"uai":"0400017B","nom":"Lycee Victor Duruy","ville":"Mont De Marsan","departement":"Laes","codeDept":"40","academie":"Bordeaux","region":"Nouvelle-Aquitaine","secteur":"public","type":"GT","lat":43.89683574692274,"lng":-0.5017428219339044,"adresse":"260 avenue Nonères","codePostal":"40002","presents":237,"tauxReussite":99,"vaReussite":2,"tauxAcces":82,"vaAcces":-6,"tauxMention":77,"vaMention":11,"ips":112.1,"ecartTypeIps":32.8},{"uai":"0401002X","nom":"Lycee Haroun Tazieff (general Et Techno.)","ville":"Saint Paul Les Dax","departement":"Laes","codeDept":"40","academie":"Bordeaux","region":"Nouvelle-Aquitaine","secteur":"public","type":"GT","lat":43.72665046594881,"lng":-1.0427535284725067,"adresse":"Boulevard Saint-Vincent-de-Paul","codePostal":"40990","presents":166,"tauxReussite":98,"vaReussite":0,"tauxAcces":83,"vaAcces":-5,"tauxMention":73,"vaMention":2,"ips":104.7,"ecartTypeIps":30.8},{"uai":"0410959V","nom":"Lycee Camille Claudel","ville":"Blois","departement":"Loir-Et-Cher","codeDept":"41","academie":"Orleans-Tours","region":"Centre-Val De Loire","secteur":"public","type":"GT","lat":47.5751232525926,"lng":1.3015096498177088,"adresse":"10 rue Albert Camus","codePostal":"41018","presents":237,"tauxReussite":94,"vaReussite":-3,"tauxAcces":84,"vaAcces":-3,"tauxMention":59,"vaMention":-4,"ips":107.7,"ecartTypeIps":34.4},{"uai":"0420008F","nom":"Lycee Jeremie De La Rue (general Et Techno.)","ville":"Charlieu","departement":"Loire","codeDept":"42","academie":"Lyon","region":"Auvergne-Rhone-Alpes","secteur":"public","type":"GT","lat":46.16975983274846,"lng":4.1714295732686235,"adresse":"Route de Saint-Bonnet","codePostal":"42190","presents":96,"tauxReussite":96,"vaReussite":-3,"tauxAcces":93,"vaAcces":3,"tauxMention":70,"vaMention":-3,"ips":108.1,"ecartTypeIps":32.2},{"uai":"0420979L","nom":"Lycee Tezenas Du Montcel","ville":"Saint Etienne","departement":"Loire","codeDept":"42","academie":"Lyon","region":"Auvergne-Rhone-Alpes","secteur":"privé sous contrat","type":"GT","lat":45.447987881905675,"lng":4.380589476799199,"adresse":"14-16 place Girodet","codePostal":"42000","presents":92,"tauxReussite":96,"vaReussite":0,"tauxAcces":76,"vaAcces":-11,"tauxMention":47,"vaMention":-11,"ips":110.5,"ecartTypeIps":30.9},{"uai":"0421022H","nom":"Lycee Sainte Marie La Gra'grange","ville":"Saint Chamo","departement":"Loire","codeDept":"42","academie":"Lyon","region":"Auvergne-Rhone-Alpes","secteur":"privé sous contrat","type":"GT","lat":45.47168835364804,"lng":4.5225304260606425,"adresse":"15 route du Coin","codePostal":"42401","presents":97,"tauxReussite":100,"vaReussite":1,"tauxAcces":87,"vaAcces":-3,"tauxMention":81,"vaMention":-3,"ips":124.8,"ecartTypeIps":35.4},{"uai":"0421976V","nom":"Lycee Francois Mauriac-Forez","ville":"Arezieux Boutheon","departement":"Loire","codeDept":"42","academie":"Lyon","region":"Auvergne-Rhone-Alpes","secteur":"public","type":"GT","lat":45.53022390708379,"lng":4.270521009137955,"adresse":"32 rue des Bullieux","codePostal":"42160","presents":436,"tauxReussite":98,"vaReussite":0,"tauxAcces":88,"vaAcces":-1,"tauxMention":62,"vaMention":-8,"ips":120.8,"ecartTypeIps":33.7},{"uai":"0422158T","nom":"Lycee La Salesienne (general Et Techno.)","ville":"Saint Etienne","departement":"Loire","codeDept":"42","academie":"Lyon","region":"Auvergne-Rhone-Alpes","secteur":"privé sous contrat","type":"GT","lat":45.438972211515114,"lng":4.402060614850185,"adresse":"35 rue de la Richelandière","codePostal":"42100","presents":47,"tauxReussite":100,"vaReussite":2,"tauxAcces":80,"vaAcces":-6,"tauxMention":79,"vaMention":11,"ips":100.3,"ecartTypeIps":28.7},{"uai":"0430021P","nom":"Lycee Simone Weil","ville":"Le Puy En Velay","departement":"Haute-Loire","codeDept":"43","academie":"Clermont-Ferra","region":"Auvergne-Rhone-Alpes","secteur":"public","type":"GT","lat":45.04881318010798,"lng":3.894879544409612,"adresse":"22 boulevard Maréchal Joffre","codePostal":"43003","presents":338,"tauxReussite":97,"vaReussite":-1,"tauxAcces":92,"vaAcces":3,"tauxMention":61,"vaMention":-8,"ips":112.4,"ecartTypeIps":32.9},{"uai":"0440001M","nom":"Lycee Joubert-Emilien Maillard (general Et Techno.)","ville":"Ancenis","departement":"Loire-Atlantique","codeDept":"44","academie":"Nantes","region":"Pays De La Loire","secteur":"public","type":"GT","lat":47.37537909669732,"lng":-1.1817713728384345,"adresse":"160 rue du Pressoir Rouge","codePostal":"44150","presents":209,"tauxReussite":98,"vaReussite":0,"tauxAcces":83,"vaAcces":-5,"tauxMention":64,"vaMention":-6,"ips":106.2,"ecartTypeIps":33.6},{"uai":"0440005S","nom":"Lycee Guy Moquet - Etienne Lenoir (general Et Techno.)","ville":"Chateaubriant","departement":"Loire-Atlantique","codeDept":"44","academie":"Nantes","region":"Pays De La Loire","secteur":"public","type":"GT","lat":47.72733366432043,"lng":-1.3680585915138443,"adresse":"7 rue de l'Europe","codePostal":"44146","presents":178,"tauxReussite":91,"vaReussite":-4,"tauxAcces":83,"vaAcces":-2,"tauxMention":53,"vaMention":2,"ips":93.3,"ecartTypeIps":28.2},{"uai":"0440022K","nom":"Lycee Jules Verne","ville":"Nantes","departement":"Loire-Atlantique","codeDept":"44","academie":"Nantes","region":"Pays De La Loire","secteur":"public","type":"GT","lat":47.217000945239455,"lng":-1.5610097373813439,"adresse":"1 rue Général Meusnier","codePostal":"44042","presents":128,"tauxReussite":97,"vaReussite":-2,"tauxAcces":82,"vaAcces":-7,"tauxMention":77,"vaMention":-5,"ips":139.2,"ecartTypeIps":34.1},{"uai":"0440151A","nom":"Lycee St Joseph","ville":"Chateaubriant","departement":"Loire-Atlantique","codeDept":"44","academie":"Nantes","region":"Pays De La Loire","secteur":"privé sous contrat","type":"GT","lat":47.71536718077101,"lng":-1.3767794765731127,"adresse":"13 A rue de la Libération","codePostal":"44141","presents":119,"tauxReussite":97,"vaReussite":-1,"tauxAcces":86,"vaAcces":-2,"tauxMention":66,"vaMention":0,"ips":113.6,"ecartTypeIps":31.1},{"uai":"0440175B","nom":"Lycee Gabriel Deshayes","ville":"Saint Gildas Des Bois","departement":"Loire-Atlantique","codeDept":"44","academie":"Nantes","region":"Pays De La Loire","secteur":"privé sous contrat","type":"GT","lat":47.51850078199674,"lng":-2.0389070835381147,"adresse":"4 route de Redon","codePostal":"44530","presents":121,"tauxReussite":100,"vaReussite":2,"tauxAcces":94,"vaAcces":5,"tauxMention":70,"vaMention":3,"ips":112.1,"ecartTypeIps":30.7},{"uai":"0440176C","nom":"Lycee St Dominique","ville":"Saint Herblain","departement":"Loire-Atlantique","codeDept":"44","academie":"Nantes","region":"Pays De La Loire","secteur":"privé sous contrat","type":"GT","lat":47.24404296196338,"lng":-1.6043424577979768,"adresse":"103 avenue de Cheverny","codePostal":"44800","presents":234,"tauxReussite":100,"vaReussite":1,"tauxAcces":89,"vaAcces":-1,"tauxMention":81,"vaMention":-3,"ips":136.6,"ecartTypeIps":27.5},{"uai":"0440178E","nom":"Lycee  D'esperance","ville":"Saint Nazaire","departement":"Loire-Atlantique","codeDept":"44","academie":"Nantes","region":"Pays De La Loire","secteur":"privé sous contrat","type":"GT","lat":47.27450617067319,"lng":-2.2084805478030347,"adresse":"15 rue du Bois Savary","codePostal":"44615","presents":197,"tauxReussite":100,"vaReussite":1,"tauxAcces":89,"vaAcces":0,"tauxMention":77,"vaMention":0,"ips":126.8,"ecartTypeIps":30.3},{"uai":"0440279P","nom":"Lycee La Baugerie (general Et Techno.)","ville":"Saint Sebastien Sur Loire","departement":"Loire-Atlantique","codeDept":"44","academie":"Nantes","region":"Pays De La Loire","secteur":"privé sous contrat","type":"GT","lat":47.206153038019636,"lng":-1.520705300478226,"adresse":"38 boulevard DES PAS ENCHANTES","codePostal":"44232","presents":101,"tauxReussite":99,"vaReussite":0,"tauxAcces":75,"vaAcces":-14,"tauxMention":69,"vaMention":-6,"ips":121.1,"ecartTypeIps":30.5},{"uai":"0440288Z","nom":"Lycee Albert Camus","ville":"Nantes","departement":"Loire-Atlantique","codeDept":"44","academie":"Nantes","region":"Pays De La Loire","secteur":"public","type":"GT","lat":47.20468895900564,"lng":-1.6099696774353849,"adresse":"11 rue Étienne Coutan","codePostal":"44107","presents":216,"tauxReussite":85,"vaReussite":-8,"tauxAcces":75,"vaAcces":-8,"tauxMention":43,"vaMention":-4,"ips":100,"ecartTypeIps":34.5},{"uai":"0441653H","nom":"Lycee St Joseph La Joliverie (general Et Techno.)","ville":"Saint Sebastien Sur Loire","departement":"Loire-Atlantique","codeDept":"44","academie":"Nantes","region":"Pays De La Loire","secteur":"privé sous contrat","type":"GT","lat":47.189743779850126,"lng":-1.5173123201131347,"adresse":"141  ROUTE DE CLISSON","codePostal":"44232","presents":127,"tauxReussite":99,"vaReussite":0,"tauxAcces":80,"vaAcces":-7,"tauxMention":83,"vaMention":6,"ips":125.5,"ecartTypeIps":30.2},{"uai":"0441993C","nom":"Lycee Carcouet","ville":"Nantes","departement":"Loire-Atlantique","codeDept":"44","academie":"Nantes","region":"Pays De La Loire","secteur":"public","type":"GT","lat":47.23134140761392,"lng":-1.5929603553867224,"adresse":"115 boulevard du Massacre","codePostal":"44100","presents":201,"tauxReussite":91,"vaReussite":-1,"tauxAcces":73,"vaAcces":-8,"tauxMention":40,"vaMention":-7,"ips":102.9,"ecartTypeIps":36.5},{"uai":"0442083A","nom":"Lycee Cens","ville":"La Chapelle Sur Erdre","departement":"Loire-Atlantique","codeDept":"44","academie":"Nantes","region":"Pays De La Loire","secteur":"privé sous contrat","type":"GT","lat":47.26060900953403,"lng":-1.541370359290297,"adresse":"Plaine de jeux de la Jonelière","codePostal":"44240","presents":42,"tauxReussite":100,"vaReussite":3,"tauxAcces":87,"vaAcces":null,"tauxMention":69,"vaMention":3,"ips":130.7,"ecartTypeIps":35.7},{"uai":"0442752C","nom":"Lycee Aime Cesaire (general Et Techno.)","ville":"Clisson","departement":"Loire-Atlantique","codeDept":"44","academie":"Nantes","region":"Pays De La Loire","secteur":"public","type":"GT","lat":47.09329800779909,"lng":-1.267820018445524,"adresse":"1 esplanade d'Alatri","codePostal":"44190","presents":258,"tauxReussite":98,"vaReussite":0,"tauxAcces":89,"vaAcces":0,"tauxMention":71,"vaMention":2,"ips":118.3,"ecartTypeIps":32.8},{"uai":"0450029M","nom":"Lycee Bernard Palissy","ville":"Gien","departement":"Loiret","codeDept":"45","academie":"Orleans-Tours","region":"Centre-Val De Loire","secteur":"public","type":"GT","lat":47.70051419087046,"lng":2.6322502938165946,"adresse":"9 rue du 32e RI","codePostal":"45502","presents":358,"tauxReussite":95,"vaReussite":0,"tauxAcces":89,"vaAcces":3,"tauxMention":61,"vaMention":5,"ips":101.4,"ecartTypeIps":33.1},{"uai":"0450782F","nom":"Lycee Voltaire","ville":"Orleans","departement":"Loiret","codeDept":"45","academie":"Orleans-Tours","region":"Centre-Val De Loire","secteur":"public","type":"GT","lat":47.83652201840047,"lng":1.9400204924587423,"adresse":"3 avenue Voltaire","codePostal":"45072","presents":451,"tauxReussite":95,"vaReussite":-1,"tauxAcces":83,"vaAcces":-3,"tauxMention":57,"vaMention":-1,"ips":106.5,"ecartTypeIps":36},{"uai":"0451442Y","nom":"Lycee Chateau Blanc (general Et Techno.)","ville":"Chalette Sur Loing","departement":"Loiret","codeDept":"45","academie":"Orleans-Tours","region":"Centre-Val De Loire","secteur":"public","type":"GT","lat":48.003645765572884,"lng":2.7156205178914625,"adresse":"1 rue Saint-Just","codePostal":"45120","presents":35,"tauxReussite":94,"vaReussite":null,"tauxAcces":88,"vaAcces":null,"tauxMention":31,"vaMention":null,"ips":86.2,"ecartTypeIps":26.2},{"uai":"0451483T","nom":"Lycee Maurice Genevoix (general Et Techno.)","ville":"Ingre","departement":"Loiret","codeDept":"45","academie":"Orleans-Tours","region":"Centre-Val De Loire","secteur":"public","type":"GT","lat":47.919811313654144,"lng":1.8309901685081766,"adresse":"1 avenue de la Grenaudière","codePostal":"45147","presents":345,"tauxReussite":95,"vaReussite":-1,"tauxAcces":84,"vaAcces":-2,"tauxMention":53,"vaMention":-4,"ips":109.7,"ecartTypeIps":33.1},{"uai":"0470001W","nom":"Lycee Bernard Palissy","ville":"Agen","departement":"Lot-Et-Garonne","codeDept":"47","academie":"Bordeaux","region":"Nouvelle-Aquitaine","secteur":"public","type":"GT","lat":44.200742080794605,"lng":0.6226423046489118,"adresse":"164 boulevard de la Liberté","codePostal":"47007","presents":405,"tauxReussite":97,"vaReussite":0,"tauxAcces":85,"vaAcces":-2,"tauxMention":69,"vaMention":3,"ips":108.7,"ecartTypeIps":35.4},{"uai":"0470020S","nom":"Lycee Tech Innovantes - V De Garonne (general Et Techno.)","ville":"Marmae","departement":"Lot-Et-Garonne","codeDept":"47","academie":"Bordeaux","region":"Nouvelle-Aquitaine","secteur":"public","type":"GT","lat":44.50481132869167,"lng":0.15631187439471975,"adresse":"22 rue Ejea de los Caballeros","codePostal":"47207","presents":330,"tauxReussite":96,"vaReussite":0,"tauxAcces":85,"vaAcces":-2,"tauxMention":59,"vaMention":-1,"ips":103.9,"ecartTypeIps":32.2},{"uai":"0470028A","nom":"Lycee George Sa","ville":"Nerac","departement":"Lot-Et-Garonne","codeDept":"47","academie":"Bordeaux","region":"Nouvelle-Aquitaine","secteur":"public","type":"GT","lat":44.14058391536037,"lng":0.3340826984565832,"adresse":"Boulevard Pierre de Coubertin","codePostal":"47600","presents":131,"tauxReussite":98,"vaReussite":2,"tauxAcces":83,"vaAcces":-3,"tauxMention":62,"vaMention":-1,"ips":110.1,"ecartTypeIps":34.1},{"uai":"0480025S","nom":"Lycee Notre-Dame (general Et Techno.)","ville":"Mee","departement":"Lozere","codeDept":"48","academie":"Montpellier","region":"Occitanie","secteur":"privé sous contrat","type":"GT","lat":44.52134271055398,"lng":3.511940491671458,"adresse":"Quartier Fontanilles","codePostal":"48000","presents":80,"tauxReussite":100,"vaReussite":2,"tauxAcces":97,"vaAcces":9,"tauxMention":76,"vaMention":7,"ips":113.8,"ecartTypeIps":28.2},{"uai":"0490001K","nom":"Lycee David D Angers","ville":"Angers","departement":"Maine-Et-Loire","codeDept":"49","academie":"Nantes","region":"Pays De La Loire","secteur":"public","type":"GT","lat":47.466223023595994,"lng":-0.5444200738515328,"adresse":"1 rue Paul Langevin","codePostal":"49035","presents":285,"tauxReussite":95,"vaReussite":-2,"tauxAcces":81,"vaAcces":-6,"tauxMention":62,"vaMention":-7,"ips":126.1,"ecartTypeIps":36},{"uai":"0501839C","nom":"Lycee Sivard De Beaulieu","ville":"Carentan Les Marais","departement":"Manche","codeDept":"50","academie":"Normaie","region":"Normaie","secteur":"public","type":"GT","lat":49.30499142778844,"lng":-1.2391056446111175,"adresse":"7 bis rue Sivard de Beaulieu","codePostal":"50500","presents":111,"tauxReussite":98,"vaReussite":0,"tauxAcces":79,"vaAcces":-11,"tauxMention":64,"vaMention":-4,"ips":106.8,"ecartTypeIps":32.4},{"uai":"0501850P","nom":"Lycee Maurice Marla (general Et Techno.)","ville":"Granville","departement":"Manche","codeDept":"50","academie":"Normaie","region":"Normaie","secteur":"public","type":"GT","lat":48.83100463107776,"lng":-1.5805003664763941,"adresse":"159 rue des Lycées","codePostal":"50400","presents":20,"tauxReussite":95,"vaReussite":null,"tauxAcces":90,"vaAcces":null,"tauxMention":75,"vaMention":null,"ips":92.7,"ecartTypeIps":24.6},{"uai":"0510034K","nom":"Lycee Franklin Roosevelt (general Et Techno.)","ville":"Reims","departement":"Marne","codeDept":"51","academie":"Reims","region":"Gra Est","secteur":"public","type":"GT","lat":49.263238315726255,"lng":4.026660366516108,"adresse":"10 rue Roosevelt","codePostal":"51100","presents":427,"tauxReussite":85,"vaReussite":-9,"tauxAcces":76,"vaAcces":-7,"tauxMention":41,"vaMention":-11,"ips":108.5,"ecartTypeIps":35.4},{"uai":"0510062R","nom":"Lycee Francois 1er (general Et Techno.)","ville":"Vitry Le Francois","departement":"Marne","codeDept":"51","academie":"Reims","region":"Gra Est","secteur":"public","type":"GT","lat":48.727973903439626,"lng":4.596560655121817,"adresse":"Faubourg de Vitry le Brûlé","codePostal":"51308","presents":211,"tauxReussite":90,"vaReussite":-5,"tauxAcces":83,"vaAcces":-3,"tauxMention":45,"vaMention":-8,"ips":94.7,"ecartTypeIps":30.6},{"uai":"0510068X","nom":"Lycee Europeen Stephane Hessel (general Et Techno.)","ville":"Epernay","departement":"Marne","codeDept":"51","academie":"Reims","region":"Gra Est","secteur":"public","type":"GT","lat":49.039429174246436,"lng":3.9652005806935606,"adresse":"8 rue Godart Roger","codePostal":"51200","presents":446,"tauxReussite":92,"vaReussite":-3,"tauxAcces":85,"vaAcces":-1,"tauxMention":53,"vaMention":-2,"ips":100.7,"ecartTypeIps":31.5},{"uai":"0511135G","nom":"Lycee Notre-Dame St Victor","ville":"Epernay","departement":"Marne","codeDept":"51","academie":"Reims","region":"Gra Est","secteur":"privé sous contrat","type":"GT","lat":49.04151023567243,"lng":3.9574193296207283,"adresse":"11 rue Jean Chandon Moet","codePostal":"51200","presents":91,"tauxReussite":98,"vaReussite":0,"tauxAcces":84,"vaAcces":-5,"tauxMention":75,"vaMention":2,"ips":116.8,"ecartTypeIps":30.6},{"uai":"0511145T","nom":"Lycee St Michel (general Et Techno.)","ville":"Reims","departement":"Marne","codeDept":"51","academie":"Reims","region":"Gra Est","secteur":"privé sous contrat","type":"GT","lat":49.2466954607039,"lng":4.014050539836219,"adresse":"39 rue Martin Peller","codePostal":"51100","presents":109,"tauxReussite":98,"vaReussite":1,"tauxAcces":81,"vaAcces":-6,"tauxMention":57,"vaMention":0,"ips":109.3,"ecartTypeIps":30},{"uai":"0511147V","nom":"Lycee Frederic Ozanam (general Et Techno.)","ville":"Chalons En Champagne","departement":"Marne","codeDept":"51","academie":"Reims","region":"Gra Est","secteur":"privé sous contrat","type":"GT","lat":48.977963183588656,"lng":4.3611609741936626,"adresse":"1 rue de la Fraternité","codePostal":"51000","presents":179,"tauxReussite":98,"vaReussite":0,"tauxAcces":89,"vaAcces":1,"tauxMention":52,"vaMention":-19,"ips":117.3,"ecartTypeIps":30.5},{"uai":"0511926S","nom":"Lycee Marc Chagall","ville":"Reims","departement":"Marne","codeDept":"51","academie":"Reims","region":"Gra Est","secteur":"public","type":"GT","lat":49.24220701715142,"lng":4.025995526538657,"adresse":"60 chaussée Saint-Martin","codePostal":"51726","presents":282,"tauxReussite":96,"vaReussite":-2,"tauxAcces":88,"vaAcces":0,"tauxMention":74,"vaMention":-2,"ips":123.4,"ecartTypeIps":34.1},{"uai":"0530004S","nom":"Lycee Victor Hugo","ville":"Chateau Gontier Sur Mayenne","departement":"Mayenne","codeDept":"53","academie":"Nantes","region":"Pays De La Loire","secteur":"public","type":"GT","lat":47.828207649733216,"lng":-0.6980619694286776,"adresse":"4 rue du Gal Lemonnier","codePostal":"53200","presents":184,"tauxReussite":97,"vaReussite":-1,"tauxAcces":90,"vaAcces":1,"tauxMention":65,"vaMention":-5,"ips":113.1,"ecartTypeIps":33.9},{"uai":"0530010Y","nom":"Lycee Ambroise Pare","ville":"Laval","departement":"Mayenne","codeDept":"53","academie":"Nantes","region":"Pays De La Loire","secteur":"public","type":"GT","lat":48.06593887069267,"lng":-0.7763004705105594,"adresse":"17 rue du Lycee","codePostal":"53013","presents":339,"tauxReussite":97,"vaReussite":0,"tauxAcces":90,"vaAcces":3,"tauxMention":57,"vaMention":-6,"ips":111.2,"ecartTypeIps":32.8},{"uai":"0530012A","nom":"Lycee Reaumur (general Et Techno.)","ville":"Laval","departement":"Mayenne","codeDept":"53","academie":"Nantes","region":"Pays De La Loire","secteur":"public","type":"GT","lat":48.06776600923271,"lng":-0.7589294644169176,"adresse":"39 avenue Chanzy","codePostal":"53013","presents":166,"tauxReussite":99,"vaReussite":5,"tauxAcces":89,"vaAcces":4,"tauxMention":55,"vaMention":1,"ips":103.2,"ecartTypeIps":31.6},{"uai":"0530016E","nom":"Lycee Lavoisier","ville":"Mayenne","departement":"Mayenne","codeDept":"53","academie":"Nantes","region":"Pays De La Loire","secteur":"public","type":"GT","lat":48.30546506348627,"lng":-0.628930620415273,"adresse":"281 rue du Pommier","codePostal":"53103","presents":181,"tauxReussite":97,"vaReussite":-1,"tauxAcces":85,"vaAcces":-4,"tauxMention":57,"vaMention":-11,"ips":110.9,"ecartTypeIps":32.5},{"uai":"0530046M","nom":"Lycee St Michel","ville":"Chateau Gontier","departement":"Mayenne","codeDept":"53","academie":"Nantes","region":"Pays De La Loire","secteur":"privé sous contrat","type":"GT","lat":47.83137541398297,"lng":-0.7092974349873423,"adresse":"5 rue Henri Dunant","codePostal":"53204","presents":98,"tauxReussite":100,"vaReussite":2,"tauxAcces":83,"vaAcces":-6,"tauxMention":69,"vaMention":-2,"ips":116.9,"ecartTypeIps":32.6},{"uai":"0530049R","nom":"Lycee D'avesnieres","ville":"Laval","departement":"Mayenne","codeDept":"53","academie":"Nantes","region":"Pays De La Loire","secteur":"privé sous contrat","type":"GT","lat":48.06281563934394,"lng":-0.7678604200177789,"adresse":"51 rue d'Avesnières","codePostal":"53000","presents":222,"tauxReussite":99,"vaReussite":0,"tauxAcces":89,"vaAcces":-1,"tauxMention":72,"vaMention":-6,"ips":122.3,"ecartTypeIps":30},{"uai":"0530949U","nom":"Lycee Raoul Vadepied (general Et Techno.)","ville":"Evron","departement":"Mayenne","codeDept":"53","academie":"Nantes","region":"Pays De La Loire","secteur":"public","type":"GT","lat":48.15215604323232,"lng":-0.3993806372392612,"adresse":"5 boulevard Henri Rossignol","codePostal":"53600","presents":65,"tauxReussite":98,"vaReussite":0,"tauxAcces":91,"vaAcces":2,"tauxMention":66,"vaMention":-1,"ips":97.8,"ecartTypeIps":33.1},{"uai":"0540042C","nom":"Lycee Henri Loritz","ville":"Nancy","departement":"Meurthe-Et-Moselle","codeDept":"54","academie":"Nancy-Metz","region":"Gra Est","secteur":"public","type":"GT","lat":48.690366618387245,"lng":6.192189522083168,"adresse":"29 rue des Jardiniers","codePostal":"54042","presents":371,"tauxReussite":99,"vaReussite":1,"tauxAcces":87,"vaAcces":1,"tauxMention":72,"vaMention":2,"ips":119.9,"ecartTypeIps":35.5},{"uai":"0540044E","nom":"Lycee Arthur Varoquaux","ville":"Tomblaine","departement":"Meurthe-Et-Moselle","codeDept":"54","academie":"Nancy-Metz","region":"Gra Est","secteur":"public","type":"GT","lat":48.69749388711174,"lng":6.218420148016803,"adresse":"10 rue Jean Moulin","codePostal":"54510","presents":405,"tauxReussite":97,"vaReussite":1,"tauxAcces":83,"vaAcces":-3,"tauxMention":64,"vaMention":5,"ips":109.4,"ecartTypeIps":33.2},{"uai":"0540076P","nom":"Lycee Jean Zay (general Et Techno.)","ville":"Jarny","departement":"Meurthe-Et-Moselle","codeDept":"54","academie":"Nancy-Metz","region":"Gra Est","secteur":"public","type":"GT","lat":49.157726724319154,"lng":5.87557929731831,"adresse":"2 rue de la Tuilerie","codePostal":"54800","presents":189,"tauxReussite":97,"vaReussite":1,"tauxAcces":91,"vaAcces":4,"tauxMention":63,"vaMention":7,"ips":96.9,"ecartTypeIps":30},{"uai":"0541286E","nom":"Lycee Louis Bertra","ville":"Briey","departement":"Meurthe-Et-Moselle","codeDept":"54","academie":"Nancy-Metz","region":"Gra Est","secteur":"public","type":"GT","lat":49.2557012349787,"lng":5.935350365117178,"adresse":"27 rue Albert de Briey","codePostal":"54150","presents":274,"tauxReussite":97,"vaReussite":1,"tauxAcces":91,"vaAcces":5,"tauxMention":59,"vaMention":3,"ips":101.7,"ecartTypeIps":32.1},{"uai":"0541313J","nom":"Lycee Saint Leon Ix","ville":"Nancy","departement":"Meurthe-Et-Moselle","codeDept":"54","academie":"Nancy-Metz","region":"Gra Est","secteur":"privé sous contrat","type":"GT","lat":48.688241184271014,"lng":6.172569806656088,"adresse":"32 avenue Foch","codePostal":"54000","presents":83,"tauxReussite":100,"vaReussite":1,"tauxAcces":93,"vaAcces":2,"tauxMention":82,"vaMention":-1,"ips":145.3,"ecartTypeIps":24.7},{"uai":"0541320S","nom":"Lycee Jean-Baptiste Vatelot","ville":"Toul","departement":"Meurthe-Et-Moselle","codeDept":"54","academie":"Nancy-Metz","region":"Gra Est","secteur":"privé sous contrat","type":"GT","lat":48.6731325999451,"lng":5.892009868491497,"adresse":"6 rue de la République","codePostal":"54203","presents":38,"tauxReussite":100,"vaReussite":null,"tauxAcces":58,"vaAcces":null,"tauxMention":74,"vaMention":null,"ips":113.8,"ecartTypeIps":28.2},{"uai":"0542208G","nom":"Lycee Stanislas (general Et Techno.)","ville":"Villers Les Nancy","departement":"Meurthe-Et-Moselle","codeDept":"54","academie":"Nancy-Metz","region":"Gra Est","secteur":"public","type":"GT","lat":48.66290099025871,"lng":6.151910547682995,"adresse":"468 rue de Vandoeuvre","codePostal":"54600","presents":180,"tauxReussite":96,"vaReussite":-1,"tauxAcces":80,"vaAcces":-6,"tauxMention":56,"vaMention":-8,"ips":111.5,"ecartTypeIps":32.8},{"uai":"0550002D","nom":"Lycee Raymo Poincare","ville":"Bar Le Duc","departement":"Meuse","codeDept":"55","academie":"Nancy-Metz","region":"Gra Est","secteur":"public","type":"GT","lat":48.77741675792715,"lng":5.157180236904018,"adresse":"1 place Paul Lemagny","codePostal":"55000","presents":278,"tauxReussite":97,"vaReussite":1,"tauxAcces":89,"vaAcces":3,"tauxMention":58,"vaMention":-2,"ips":105.4,"ecartTypeIps":32.7},{"uai":"0550008K","nom":"Lycee Henri Vogt (general Et Techno.)","ville":"Commercy","departement":"Meuse","codeDept":"55","academie":"Nancy-Metz","region":"Gra Est","secteur":"public","type":"GT","lat":48.7545317665554,"lng":5.585929350005077,"adresse":"12 rue André Malraux","codePostal":"55200","presents":162,"tauxReussite":93,"vaReussite":-2,"tauxAcces":88,"vaAcces":2,"tauxMention":64,"vaMention":10,"ips":96.8,"ecartTypeIps":29.3},{"uai":"0573227Y","nom":"Lycee Louis De Cormontaigne (general Et Techno.)","ville":"Metz","departement":"Moselle","codeDept":"57","academie":"Nancy-Metz","region":"Gra Est","secteur":"public","type":"GT","lat":49.124272493418516,"lng":6.162839477015563,"adresse":"12 place Cormontaigne","codePostal":"57010","presents":271,"tauxReussite":93,"vaReussite":-1,"tauxAcces":80,"vaAcces":-4,"tauxMention":45,"vaMention":-5,"ips":100.4,"ecartTypeIps":36.3},{"uai":"0573366Z","nom":"Lycee Saint Vincent De Paul","ville":"Algrange","departement":"Moselle","codeDept":"57","academie":"Nancy-Metz","region":"Gra Est","secteur":"privé sous contrat","type":"GT","lat":49.35776446276269,"lng":6.049169788456444,"adresse":"4 rue Marie Douchet","codePostal":"57440","presents":52,"tauxReussite":94,"vaReussite":-4,"tauxAcces":87,"vaAcces":-2,"tauxMention":62,"vaMention":-8,"ips":109.7,"ecartTypeIps":28.6},{"uai":"0580076T","nom":"Lycee Simone Dounon (general Et Techno.)","ville":"Cosne Cours Sur Loire","departement":"Nievre","codeDept":"58","academie":"Dijon","region":"Bourgogne-Franche-Comte","secteur":"privé sous contrat","type":"GT","lat":47.41246078761385,"lng":2.923519622094612,"adresse":"5 rue Marcelin Berthelot","codePostal":"58200","presents":37,"tauxReussite":92,"vaReussite":null,"tauxAcces":83,"vaAcces":null,"tauxMention":51,"vaMention":null,"ips":101.4,"ecartTypeIps":24.3},{"uai":"0590018Z","nom":"Lycee Jesse De Forest (general Et Techno.)","ville":"Avesnes Sur Helpe","departement":"Nord","codeDept":"59","academie":"Lille","region":"Hauts-De-France","secteur":"public","type":"GT","lat":50.1211158137875,"lng":3.924170542399109,"adresse":"15 avenue du Pont Rouge","codePostal":"59363","presents":207,"tauxReussite":98,"vaReussite":4,"tauxAcces":83,"vaAcces":-2,"tauxMention":61,"vaMention":9,"ips":96.8,"ecartTypeIps":31.7},{"uai":"0590086Y","nom":"Lycee Marguerite De Flare","ville":"Goecourt","departement":"Nord","codeDept":"59","academie":"Lille","region":"Hauts-De-France","secteur":"public","type":"GT","lat":50.54304663676516,"lng":2.9810103905678043,"adresse":"4 rue du Maréchal Leclerc","codePostal":"59147","presents":391,"tauxReussite":99,"vaReussite":1,"tauxAcces":89,"vaAcces":1,"tauxMention":78,"vaMention":6,"ips":126.5,"ecartTypeIps":34.1},{"uai":"0590110Z","nom":"Lycee Jean Perrin","ville":"Lambersart","departement":"Nord","codeDept":"59","academie":"Lille","region":"Hauts-De-France","secteur":"public","type":"GT","lat":50.6475899494943,"lng":3.0391493491656583,"adresse":"2 avenue Andreï Sakharov","codePostal":"59832","presents":261,"tauxReussite":97,"vaReussite":1,"tauxAcces":82,"vaAcces":-4,"tauxMention":66,"vaMention":4,"ips":118.1,"ecartTypeIps":38.8},{"uai":"0590112B","nom":"Lycee Dupleix","ville":"Larecies","departement":"Nord","codeDept":"59","academie":"Lille","region":"Hauts-De-France","secteur":"public","type":"GT","lat":50.12312470391326,"lng":3.68562043758952,"adresse":"10 boulevard des Résistants","codePostal":"59550","presents":99,"tauxReussite":97,"vaReussite":3,"tauxAcces":85,"vaAcces":0,"tauxMention":62,"vaMention":11,"ips":101.8,"ecartTypeIps":30.6},{"uai":"0590143K","nom":"Lycee Yves Kernanec","ville":"Marcq En Baroeul","departement":"Nord","codeDept":"59","academie":"Lille","region":"Hauts-De-France","secteur":"public","type":"GT","lat":50.66201238713699,"lng":3.0864196072483905,"adresse":"91 avenue du Docteur Calmette","codePostal":"59702","presents":247,"tauxReussite":92,"vaReussite":-5,"tauxAcces":83,"vaAcces":-4,"tauxMention":61,"vaMention":-3,"ips":124,"ecartTypeIps":36.9},{"uai":"0590185F","nom":"Lycee Jean Moulin (general Et Techno.)","ville":"Roubaix","departement":"Nord","codeDept":"59","academie":"Lille","region":"Hauts-De-France","secteur":"public","type":"GT","lat":50.68533375781229,"lng":3.1729055445539354,"adresse":"49 boulevard du Général de Gaulle","codePostal":"59100","presents":200,"tauxReussite":70,"vaReussite":-3,"tauxAcces":60,"vaAcces":-10,"tauxMention":22,"vaMention":2,"ips":73.7,"ecartTypeIps":23.4},{"uai":"0590207E","nom":"Lycee Louis Pasteur","ville":"Somain","departement":"Nord","codeDept":"59","academie":"Lille","region":"Hauts-De-France","secteur":"public","type":"GT","lat":50.34945080014521,"lng":3.2830501908910894,"adresse":"151 boulevard Louise Michel","codePostal":"59490","presents":305,"tauxReussite":97,"vaReussite":3,"tauxAcces":81,"vaAcces":-5,"tauxMention":64,"vaMention":13,"ips":101.2,"ecartTypeIps":33},{"uai":"0590214M","nom":"Lycee Colbert (general Et Techno.)","ville":"Tourcoing","departement":"Nord","codeDept":"59","academie":"Lille","region":"Hauts-De-France","secteur":"public","type":"GT","lat":50.72565833616726,"lng":3.1571806711317283,"adresse":"2 parvis Jean-Baptiste Colbert","codePostal":"59208","presents":157,"tauxReussite":86,"vaReussite":0,"tauxAcces":67,"vaAcces":-10,"tauxMention":44,"vaMention":9,"ips":91.4,"ecartTypeIps":32.5},{"uai":"0590221V","nom":"Lycee Henri Wallon","ville":"Valenciennes","departement":"Nord","codeDept":"59","academie":"Lille","region":"Hauts-De-France","secteur":"public","type":"GT","lat":50.364073876597814,"lng":3.5211996849440834,"adresse":"16 place de la République","codePostal":"59322","presents":336,"tauxReussite":94,"vaReussite":0,"tauxAcces":82,"vaAcces":-2,"tauxMention":53,"vaMention":2,"ips":109.7,"ecartTypeIps":39.8},{"uai":"0590282L","nom":"Lycee Jules Mousseron","ville":"Denain","departement":"Nord","codeDept":"59","academie":"Lille","region":"Hauts-De-France","secteur":"public","type":"GT","lat":50.32257843331871,"lng":3.3969977895268713,"adresse":"Boulevard du 8 Mai 1945","codePostal":"59723","presents":204,"tauxReussite":92,"vaReussite":1,"tauxAcces":80,"vaAcces":-2,"tauxMention":46,"vaMention":6,"ips":84.8,"ecartTypeIps":29.6},{"uai":"0592916Z","nom":"Lycee Notre-Dame De Grace","ville":"Maubeuge","departement":"Nord","codeDept":"59","academie":"Lille","region":"Hauts-De-France","secteur":"privé sous contrat","type":"GT","lat":50.276791021567234,"lng":3.9759099873260664,"adresse":"13 rue de la Croix","codePostal":"59602","presents":122,"tauxReussite":100,"vaReussite":3,"tauxAcces":76,"vaAcces":-11,"tauxMention":70,"vaMention":6,"ips":110.2,"ecartTypeIps":32.2},{"uai":"0592926K","nom":"Lycee Saint Jude","ville":"Armentieres","departement":"Nord","codeDept":"59","academie":"Lille","region":"Hauts-De-France","secteur":"privé sous contrat","type":"GT","lat":50.68744864419935,"lng":2.8757305136906353,"adresse":"18 rue Lamartine","codePostal":"59280","presents":250,"tauxReussite":100,"vaReussite":1,"tauxAcces":91,"vaAcces":1,"tauxMention":86,"vaMention":6,"ips":130.4,"ecartTypeIps":33},{"uai":"0592966D","nom":"Lycee Eic Jehanne D'arc (general Et Techno.)","ville":"Tourcoing","departement":"Nord","codeDept":"59","academie":"Lille","region":"Hauts-De-France","secteur":"privé sous contrat","type":"GT","lat":50.72117528777827,"lng":3.1499901566502215,"adresse":"102 rue de Lille","codePostal":"59202","presents":56,"tauxReussite":100,"vaReussite":5,"tauxAcces":37,"vaAcces":-47,"tauxMention":55,"vaMention":9,"ips":99.7,"ecartTypeIps":27.9},{"uai":"0592969G","nom":"Lycee Dampierre (general Et Techno.)","ville":"Valenciennes","departement":"Nord","codeDept":"59","academie":"Lille","region":"Hauts-De-France","secteur":"privé sous contrat","type":"GT","lat":50.35417746162148,"lng":3.5005900695930467,"adresse":"85 avenue de Denain","codePostal":"59326","presents":29,"tauxReussite":100,"vaReussite":null,"tauxAcces":64,"vaAcces":null,"tauxMention":62,"vaMention":null,"ips":103,"ecartTypeIps":26.4},{"uai":"0592980U","nom":"Lycee Eic Marie Noel (general Et Techno.)","ville":"Tourcoing","departement":"Nord","codeDept":"59","academie":"Lille","region":"Hauts-De-France","secteur":"privé sous contrat","type":"GT","lat":50.72285507566227,"lng":3.166880284635091,"adresse":"31 rue de Renaix","codePostal":"59202","presents":75,"tauxReussite":93,"vaReussite":-2,"tauxAcces":71,"vaAcces":-11,"tauxMention":51,"vaMention":3,"ips":93.4,"ecartTypeIps":26.6},{"uai":"0593006X","nom":"Lycee Notre-Dame D'annay (general Et Techno.)","ville":"Lille","departement":"Nord","codeDept":"59","academie":"Lille","region":"Hauts-De-France","secteur":"privé sous contrat","type":"GT","lat":50.64245917440617,"lng":3.060049591957433,"adresse":"15 place du Concert","codePostal":"59000","presents":143,"tauxReussite":97,"vaReussite":0,"tauxAcces":88,"vaAcces":4,"tauxMention":52,"vaMention":-2,"ips":120.9,"ecartTypeIps":30.3},{"uai":"0593007Y","nom":"Lycee Frederic Ozanam","ville":"Lille","departement":"Nord","codeDept":"59","academie":"Lille","region":"Hauts-De-France","secteur":"privé sous contrat","type":"GT","lat":50.63952680403839,"lng":3.086722423844717,"adresse":"238 rue du faubourg de Roubaix","codePostal":"59000","presents":276,"tauxReussite":99,"vaReussite":2,"tauxAcces":85,"vaAcces":-1,"tauxMention":66,"vaMention":0,"ips":138.2,"ecartTypeIps":31.7},{"uai":"0593058D","nom":"Lycee Vauban (general Et Techno.)","ville":"Dunkerque","departement":"Nord","codeDept":"59","academie":"Lille","region":"Hauts-De-France","secteur":"privé sous contrat","type":"GT","lat":51.02923867387293,"lng":2.378170031013183,"adresse":"1 place Vauban","codePostal":"59140","presents":62,"tauxReussite":89,"vaReussite":-6,"tauxAcces":75,"vaAcces":-11,"tauxMention":40,"vaMention":-10,"ips":95,"ecartTypeIps":26.6},{"uai":"0593114P","nom":"Lycee Saint Paul","ville":"Lille","departement":"Nord","codeDept":"59","academie":"Lille","region":"Hauts-De-France","secteur":"privé sous contrat","type":"GT","lat":50.62796270475039,"lng":3.048570130436905,"adresse":"25 bis rue Colbert","codePostal":"59000","presents":318,"tauxReussite":100,"vaReussite":0,"tauxAcces":92,"vaAcces":1,"tauxMention":93,"vaMention":4,"ips":152.1,"ecartTypeIps":25.2},{"uai":"0601864A","nom":"Lycee Are Malraux","ville":"Montataire","departement":"Oise","codeDept":"60","academie":"Amiens","region":"Hauts-De-France","secteur":"public","type":"GT","lat":49.26076666122388,"lng":2.425360010115407,"adresse":"1 place Nelson Mandela","codePostal":"60160","presents":225,"tauxReussite":95,"vaReussite":2,"tauxAcces":86,"vaAcces":3,"tauxMention":51,"vaMention":2,"ips":95.2,"ecartTypeIps":31.9},{"uai":"0610006A","nom":"Lycee Mezeray-Gabriel (general Et Techno.)","ville":"Argentan","departement":"Orne","codeDept":"61","academie":"Normaie","region":"Normaie","secteur":"public","type":"GT","lat":48.74472330166484,"lng":-0.014840183970246753,"adresse":"6 place Robert Dugué","codePostal":"61200","presents":182,"tauxReussite":96,"vaReussite":-1,"tauxAcces":82,"vaAcces":-6,"tauxMention":56,"vaMention":-10,"ips":95.7,"ecartTypeIps":30},{"uai":"0620006V","nom":"Lycee Robespierre","ville":"Arras","departement":"Pas-De-Calais","codeDept":"62","academie":"Lille","region":"Hauts-De-France","secteur":"public","type":"GT","lat":50.28746924484588,"lng":2.7655204011797494,"adresse":"Avenue des Fusillés","codePostal":"62022","presents":309,"tauxReussite":98,"vaReussite":0,"tauxAcces":91,"vaAcces":3,"tauxMention":70,"vaMention":2,"ips":120.9,"ecartTypeIps":36.2},{"uai":"0620166U","nom":"Lycee Albert Chatelet","ville":"Saint Pol Sur Ternoise","departement":"Pas-De-Calais","codeDept":"62","academie":"Lille","region":"Hauts-De-France","secteur":"public","type":"GT","lat":50.38568565435221,"lng":2.3455396752654427,"adresse":"15 rue Cassin","codePostal":"62165","presents":260,"tauxReussite":97,"vaReussite":1,"tauxAcces":80,"vaAcces":-7,"tauxMention":64,"vaMention":3,"ips":105.8,"ecartTypeIps":33.6},{"uai":"0622114L","nom":"Lycee Saint Paul (general Et Techno.)","ville":"Lens","departement":"Pas-De-Calais","codeDept":"62","academie":"Lille","region":"Hauts-De-France","secteur":"privé sous contrat","type":"GT","lat":50.436096360395936,"lng":2.8224197593368108,"adresse":"38 route de la Bassée","codePostal":"62300","presents":351,"tauxReussite":100,"vaReussite":1,"tauxAcces":93,"vaAcces":3,"tauxMention":83,"vaMention":5,"ips":123.9,"ecartTypeIps":30.2},